geonameid	city_name	lat	lon	pop	ccode	cname	region	continent	least_developed
5210117	Saint Marys	41.42784	-78.56086	13070	USA	United States	Northern America	Americas	False
524294	Murom	55.575	42.0426	126931	RUS	Russia	Eastern Europe	Europe	False
2883591	Kropp	54.41667	9.51667	6320	DEU	Germany	Western Europe	Europe	False
3407882	Altamira	-3.20333	-52.20639	70888	BRA	Brazil	South America	Americas	False
8224780	Cradley Heath	52.47214	-2.08212	5001	GBR	United Kingdom	Northern Europe	Europe	False
5177358	Wooster	40.80517	-81.93646	26119	USA	United States	Northern America	Americas	False
8224783	Stanley	54.86796	-1.69846	16200	GBR	United Kingdom	Northern Europe	Europe	False
8224784	Stockton Heath	53.37084	-2.57406	6396	GBR	United Kingdom	Northern Europe	Europe	False
524305	Murmansk	68.97917	33.09251	319263	RUS	Russia	Eastern Europe	Europe	False
2654226	Bursledon	50.88658	-1.31596	6894	GBR	United Kingdom	Northern Europe	Europe	False
688148	Yenakiyeve	48.23331	38.21137	104101	UKR	Ukraine	Eastern Europe	Europe	False
2654229	Burry Port	51.68435	-4.24687	7860	GBR	United Kingdom	Northern Europe	Europe	False
5920089	Charlemagne	45.71678	-73.48247	5594	CAN	Canada	Northern America	Americas	False
3112989	Pozuelo de Alarcón	40.43293	-3.81338	82428	ESP	Spain	Southern Europe	Europe	False
5144606	Williston Park	40.75649	-73.64485	7287	USA	United States	Northern America	Americas	False
294946	H̱adera	32.44192	34.9039	75854	ISR	Israel	Western Asia	Asia	False
2981925	Saint-Affrique	43.95575	2.88915	8548	FRA	France	Western Europe	Europe	False
3178534	Coccaglio	45.56399	9.97224	8135	ITA	Italy	Southern Europe	Europe	False
3110813	Sant Celoni	41.68921	2.48965	16860	ESP	Spain	Southern Europe	Europe	False
3014697	Gretz-Armainvilliers	48.7412	2.73105	7831	FRA	France	Western Europe	Europe	False
4161580	Largo	27.90979	-82.78842	77648	USA	United States	Northern America	Americas	False
2654255	Burntisland	56.06248	-3.23176	5518	GBR	United Kingdom	Northern Europe	Europe	False
4554800	Watonga	35.84477	-98.41313	5111	USA	United States	Northern America	Americas	False
2162737	Ingham	-18.64552	146.16248	6127	AUS	Australia	Australia and New Zealand	Oceania	False
5177396	Worthington	40.09312	-83.01796	13575	USA	United States	Northern America	Americas	False
360502	Luxor	25.69893	32.6421	422407	EGY	Egypt	Northern Africa	Africa	False
2654264	Burnley	53.8	-2.23333	73480	GBR	United Kingdom	Northern Europe	Europe	False
2785341	Tournai	50.60715	3.38932	67721	BEL	Belgium	Western Europe	Europe	False
6127681	Rosemère	45.63338	-73.79919	14173	CAN	Canada	Northern America	Americas	False
2949186	Bielefeld	52.03333	8.53333	331906	DEU	Germany	Western Europe	Europe	False
3027888	Ceret	42.48533	2.74804	8171	FRA	France	Western Europe	Europe	False
4685892	Denison	33.75566	-96.53666	22682	USA	United States	Northern America	Americas	False
567990	Chistopol’	55.36311	50.64244	62200	RUS	Russia	Eastern Europe	Europe	False
3899462	Arauco	-37.2463	-73.31752	24659	CHL	Chile	South America	Americas	False
5341256	Cypress	33.81696	-118.03729	47802	USA	United States	Northern America	Americas	False
3440714	Salto	-31.38333	-57.96667	99823	URY	Uruguay	South America	Americas	False
2747063	Sneek	53.03297	5.6589	32811	NLD	Netherlands	Western Europe	Europe	False
1850559	Tatebayashi	36.25	139.53333	81274	JPN	Japan	Eastern Asia	Asia	False
6062163	Lutes Mountain	46.13544	-64.90504	16311	CAN	Canada	Northern America	Americas	False
2785364	Torhout	51.0656	3.10085	18933	BEL	Belgium	Western Europe	Europe	False
8224782	Shirley	52.41074	-1.81952	32000	GBR	United Kingdom	Northern Europe	Europe	False
2687062	Olofström	56.2773	14.53402	7382	SWE	Sweden	Northern Europe	Europe	False
294999	Giv‘atayim	32.07225	34.81253	48000	ISR	Israel	Western Asia	Asia	False
3014745	Grenade	43.76667	1.28333	6486	FRA	France	Western Europe	Europe	False
8224859	Marconia	40.36355	16.68823	8781	ITA	Italy	Southern Europe	Europe	False
4816993	Oak Hill	37.97233	-81.14871	7730	USA	United States	Northern America	Americas	False
3178595	Civita Castellana	42.29304	12.40885	11745	ITA	Italy	Southern Europe	Europe	False
2657996	Wil	47.46152	9.04552	16808	CHE	Switzerland	Western Europe	Europe	False
3336892	Ostfildern	48.72704	9.24954	33598	DEU	Germany	Western Europe	Europe	False
4554858	Weatherford	35.52616	-98.70757	10833	USA	United States	Northern America	Americas	False
3440747	Rosario	-34.31667	-57.35	9308	URY	Uruguay	South America	Americas	False
3178605	Cividale del Friuli	46.09019	13.42861	9290	ITA	Italy	Southern Europe	Europe	False
3571824	Nassau	25.05823	-77.34306	227940	BHS	Bahamas, The	Caribbean	Americas	False
2654327	Bungay	52.45434	1.43818	5004	GBR	United Kingdom	Northern Europe	Europe	False
1278073	Bābai	22.70256	77.93494	16176	IND	India	Southern Asia	Asia	False
3113082	Portugalete	43.32099	-3.02064	48105	ESP	Spain	Southern Europe	Europe	False
3178619	Città di Castello	43.46556	12.2375	22497	ITA	Italy	Southern Europe	Europe	False
2654332	Buncrana	55.13333	-7.45	5546	IRL	Ireland	Northern Europe	Europe	False
2965525	Chapelizod	53.34889	-6.34667	5296	IRL	Ireland	Northern Europe	Europe	False
3014784	Gray	47.44575	5.59215	7402	FRA	France	Western Europe	Europe	False
3167595	Santa Margherita Ligure	44.33456	9.21204	8428	ITA	Italy	Southern Europe	Europe	False
3521081	Puebla	19.04334	-98.20193	1590256	MEX	Mexico	Central America	Americas	False
3178631	Cisterna di Latina	41.5908	12.82808	27362	ITA	Italy	Southern Europe	Europe	False
3440777	Rocha	-34.48333	-54.33333	25515	URY	Uruguay	South America	Americas	False
2850954	Radolfzell am Bodensee	47.74194	8.97098	30096	DEU	Germany	Western Europe	Europe	False
2392087	Porto-Novo	6.49646	2.60359	234168	BEN	Benin	Western Africa	Africa	False
2392204	Parakou	9.33716	2.63031	163753	BEN	Benin	Western Africa	Africa	False
3440781	Rivera	-30.90534	-55.55076	64631	URY	Uruguay	South America	Americas	False
1278094	Ajodhya	26.79909	82.2047	53293	IND	India	Southern Asia	Asia	False
4276248	Newton	38.04668	-97.34504	19132	USA	United States	Northern America	Americas	False
3899539	Antofagasta	-23.65236	-70.3954	309832	CHL	Chile	South America	Americas	False
3539092	San Luis	22.27898	-83.75956	6690	CUB	Cuba	Caribbean	Americas	False
2654357	Bulford	51.1893	-1.76009	9519	GBR	United Kingdom	Northern Europe	Europe	False
295064	Gedera	31.81456	34.77998	14575	ISR	Israel	Western Asia	Asia	False
98459	Aş Şuwayrah	32.92556	44.77583	42354	IRQ	Iraq	Western Asia	Asia	False
3016824	Gaillac	43.9016	1.89686	12600	FRA	France	Western Europe	Europe	False
688288	Yavoriv	49.93864	23.38254	13008	UKR	Ukraine	Eastern Europe	Europe	False
1015969	Brandfort	-28.70008	26.45968	12091	ZAF	South Africa	Southern Africa	Africa	False
4849826	Burlington	40.80754	-91.11292	25663	USA	United States	Northern America	Americas	False
491687	Smolensk	54.7818	32.0401	320991	RUS	Russia	Eastern Europe	Europe	False
2883754	Kronberg	50.18424	8.5232	17730	DEU	Germany	Western Europe	Europe	False
4653228	Ripley	35.74536	-89.5298	8445	USA	United States	Northern America	Americas	False
2867229	Nackenheim	49.91528	8.33889	5054	DEU	Germany	Western Europe	Europe	False
2519425	Cieza	38.23998	-1.41987	35200	ESP	Spain	Southern Europe	Europe	False
360630	Cairo	30.06263	31.24967	7734614	EGY	Egypt	Northern Africa	Africa	False
917688	Chongwe	-15.32916	28.68204	6057	ZMB	Zambia	Eastern Africa	Africa	False
3571898	Matthew Town	20.94982	-73.67346	452	BHS	Bahamas, The	Caribbean	Americas	False
2965535	Cavan	53.99083	-7.36056	6388	IRL	Ireland	Northern Europe	Europe	False
2982076	Sablé-sur-Sarthe	47.83765	-0.33294	14734	FRA	France	Western Europe	Europe	False
2785470	Tienen	50.80745	4.9378	31743	BEL	Belgium	Western Europe	Europe	False
2271947	Almancil	37.08686	-8.03074	9898	PRT	Portugal	Southern Europe	Europe	False
2785476	Tielt	50.99931	3.32707	19299	BEL	Belgium	Western Europe	Europe	False
7602373	Savave Village	-8.02731	178.31351	586	TUV	Tuvalu	Polynesia	Oceania	False
2818246	Bad Urach	48.49107	9.40009	12831	DEU	Germany	Western Europe	Europe	False
2883784	Kronach	50.23963	11.33308	18248	DEU	Germany	Western Europe	Europe	False
3571913	Marsh Harbour	26.54124	-77.0636	5314	BHS	Bahamas, The	Caribbean	Americas	False
753866	Zamość	50.72314	23.25196	66034	POL	Poland	Eastern Europe	Europe	False
2654411	Buckie	57.6757	-2.96238	7860	GBR	United Kingdom	Northern Europe	Europe	False
2654412	Buckhurst Hill	51.62409	0.03262	10738	GBR	United Kingdom	Northern Europe	Europe	False
3080226	Ziębice	50.60122	17.04065	9328	POL	Poland	Eastern Europe	Europe	False
590031	Narva	59.37722	28.19028	66980	EST	Estonia	Northern Europe	Europe	False
3014867	Granville	48.83792	-1.59714	14289	FRA	France	Western Europe	Europe	False
4292826	Glasgow	36.99588	-85.91192	14028	USA	United States	Northern America	Americas	False
6160603	Swift Current	50.28337	-107.80135	14703	CAN	Canada	Northern America	Americas	False
458972	Kārsava	56.78405	27.68829	2645	LVA	Latvia	Northern Europe	Europe	False
3080414	Zduńska Wola	51.59915	18.93974	44515	POL	Poland	Eastern Europe	Europe	False
5275871	Tomah	43.97858	-90.50402	9093	USA	United States	Northern America	Americas	False
5177568	Youngstown	41.09978	-80.64952	66982	USA	United States	Northern America	Americas	False
6947041	Blackheath	51.4647	0.0079	25116	GBR	United Kingdom	Northern Europe	Europe	False
98530	As Samawah	31.33198	45.2944	152890	IRQ	Iraq	Western Asia	Asia	False
1835235	Daejeon	36.32139	127.41972	1475221	KOR	Korea, South	Eastern Asia	Asia	False
2654437	Brynmawr	51.8	-3.18333	14924	GBR	United Kingdom	Northern Europe	Europe	False
2523366	Santa Caterina Villarmosa	37.59034	14.03554	5507	ITA	Italy	Southern Europe	Europe	False
3435217	Corrientes	-27.4806	-58.8341	339067	ARG	Argentina	South America	Americas	False
4161771	Leesburg	28.81082	-81.87786	20117	USA	United States	Northern America	Americas	False
1802476	Longquan	24.67193	102.1613	91534	CHN	China, People's Republic of	Eastern Asia	Asia	False
2812626	Weilburg	50.48438	8.26249	13798	DEU	Germany	Western Europe	Europe	False
360686	Al Minyā	28.10988	30.7503	227150	EGY	Egypt	Northern Africa	Africa	False
5308655	Phoenix	33.44838	-112.07404	1445632	USA	United States	Northern America	Americas	False
1277992	Badhni Kalān	30.6813	75.29087	6070	IND	India	Southern Asia	Asia	False
884979	Mutare	-18.9707	32.67086	184205	ZWE	Zimbabwe	Eastern Africa	Africa	False
4522228	Reading	39.22367	-84.44216	10385	USA	United States	Northern America	Americas	False
3113209	Pontevedra	42.431	-8.64435	81576	ESP	Spain	Southern Europe	Europe	False
1278204	Adirampattinam	10.34059	79.37905	27909	IND	India	Southern Asia	Asia	False
4456703	Boone	36.21679	-81.67455	17122	USA	United States	Northern America	Americas	False
622849	Rakaw	53.9674	27.0562	6300	BLR	Belarus	Eastern Europe	Europe	False
786690	Prokuplje	43.23417	21.58806	27673	SRB	Serbia	Southern Europe	Europe	False
4030723	Adamstown	-25.06597	-130.10147	46	PCN	Pitcairn Islands	Polynesia	Oceania	False
2851077	Radebeul	51.10654	13.66047	32643	DEU	Germany	Western Europe	Europe	False
295174	Er Reina	32.72339	35.31622	15621	ISR	Israel	Western Asia	Asia	False
655626	Joroinen	62.17823	27.83165	5536	FIN	Finland	Northern Europe	Europe	False
786700	Probishtip	42.00306	22.17861	12702	MKD	Macedonia	Southern Europe	Europe	False
5406990	Walnut Creek	37.90631	-122.06496	64173	USA	United States	Northern America	Americas	False
2982159	Rumilly	45.86873	5.93652	13077	FRA	France	Western Europe	Europe	False
8519952	Chabany	50.34071	30.42356	7650	UKR	Ukraine	Eastern Europe	Europe	False
262418	Filiatrá	37.15637	21.58532	6970	GRC	Greece	Southern Europe	Europe	False
4948247	Quincy	42.25288	-71.00227	92271	USA	United States	Northern America	Americas	False
786712	Prizren	42.21389	20.73972	171464	RKS	Kosovo		Asia	False
786714	Pristina	42.67272	21.16688	550000	RKS	Kosovo		Asia	False
2130203	Hachinohe	40.5	141.5	239046	JPN	Japan	Eastern Asia	Asia	False
3703068	Penonomé	8.51889	-80.35727	12394	PAN	Panama	Central America	Americas	False
611717	Tbilisi	41.69411	44.83368	1049498	GEO	Georgia	Western Asia	Asia	False
426272	Gitega	-3.4264	29.9308	23167	BDI	Burundi	Eastern Africa	Africa	False
147504	Mincivan	39.03058	46.7214	6353	AZE	Azerbaijan	Western Asia	Asia	False
5412230	Aspen	39.1911	-106.81754	6658	USA	United States	Northern America	Americas	False
2523434	Sanluri	39.56176	8.89969	7745	ITA	Italy	Southern Europe	Europe	False
5341483	Dana Point	33.46697	-117.69811	33351	USA	United States	Northern America	Americas	False
3178796	Chieti	42.34827	14.16494	44444	ITA	Italy	Southern Europe	Europe	False
786735	Prilep	41.34514	21.55504	73814	MKD	Macedonia	Southern Europe	Europe	False
360754	Al Manzilah	31.15815	31.937	67486	EGY	Egypt	Northern Africa	Africa	False
3113268	Pola de Siero	43.39228	-5.66335	12615	ESP	Spain	Southern Europe	Europe	False
3113270	Pola de Lena	43.16089	-5.82878	12766	ESP	Spain	Southern Europe	Europe	False
3113271	Pola de Laviana	43.24538	-5.5629	14210	ESP	Spain	Southern Europe	Europe	False
3178548	Cles	46.36294	11.03276	5903	ITA	Italy	Southern Europe	Europe	False
3904906	Santa Cruz de la Sierra	-17.78629	-63.18117	1364389	BOL	Bolivia	South America	Americas	False
98622	Ash Shaţrah	31.40906	46.1727	82732	IRQ	Iraq	Western Asia	Asia	False
1835329	Daegu	35.87028	128.59111	2566540	KOR	Korea, South	Eastern Asia	Asia	False
3178818	Chieri	45.01054	7.82133	32169	ITA	Italy	Southern Europe	Europe	False
4915525	Warrenville	41.81781	-88.1734	13140	USA	United States	Northern America	Americas	False
2654539	Broseley	52.61321	-2.48269	5644	GBR	United Kingdom	Northern Europe	Europe	False
2785612	Tessenderlo	51.06513	5.08856	16574	BEL	Belgium	Western Europe	Europe	False
3178829	Chiavenna	46.32063	9.39816	7239	ITA	Italy	Southern Europe	Europe	False
3178832	Chiavari	44.31771	9.32241	26572	ITA	Italy	Southern Europe	Europe	False
2785622	Tervuren	50.82372	4.51418	20623	BEL	Belgium	Western Europe	Europe	False
721239	Eger	47.90265	20.37329	56647	HUN	Hungary	Eastern Europe	Europe	False
3025715	Chaville	48.80565	2.18864	18735	FRA	France	Western Europe	Europe	False
2523482	San Gavino Monreale	39.55008	8.79065	8647	ITA	Italy	Southern Europe	Europe	False
2982235	Rueil-Malmaison	48.8765	2.18967	76616	FRA	France	Western Europe	Europe	False
2915511	Großheubach	49.72834	9.2228	5126	DEU	Germany	Western Europe	Europe	False
1507679	Chulym	55.09972	80.95722	11975	RUS	Russia	Eastern Europe	Europe	False
524640	Mtsensk	53.27657	36.57334	47609	RUS	Russia	Eastern Europe	Europe	False
2807184	Witzenhausen	51.34103	9.8554	16055	DEU	Germany	Western Europe	Europe	False
3178850	Chiari	45.53763	9.92699	15541	ITA	Italy	Southern Europe	Europe	False
295269	El Fureidīs	32.59812	34.95153	9999	ISR	Israel	Western Asia	Asia	False
3178855	Chiaravalle	43.60114	13.32511	13465	ITA	Italy	Southern Europe	Europe	False
1276634	Beāwar	26.10119	74.32028	130777	IND	India	Southern Asia	Asia	False
295277	Eilat	29.55805	34.94821	45588	ISR	Israel	Western Asia	Asia	False
2163055	Horsham	-36.71131	142.19981	14285	AUS	Australia	Australia and New Zealand	Oceania	False
5374322	Montebello	34.00946	-118.10535	62500	USA	United States	Northern America	Americas	False
2654579	Bromsgrove	52.33574	-2.05983	29237	GBR	United Kingdom	Northern Europe	Europe	False
5144948	Woodbury	41.36454	-74.10598	10686	USA	United States	Northern America	Americas	False
1016181	Brakpan	-26.23656	28.36938	305692	ZAF	South Africa	Southern Africa	Africa	False
2523513	San Cataldo	37.48412	13.98542	22079	ITA	Italy	Southern Europe	Europe	False
3178874	Chianciano Terme	43.04181	11.81205	6162	ITA	Italy	Southern Europe	Europe	False
1540475	Turtas	58.93867	69.13393	5050	RUS	Russia	Eastern Europe	Europe	False
2302357	Cape Coast	5.10535	-1.2466	143015	GHA	Ghana	Western Africa	Africa	False
360829	Al Maḩallah al Kubrá	30.97063	31.1669	431052	EGY	Egypt	Northern Africa	Africa	False
2064768	Newman	-23.35644	119.73553	5138	AUS	Australia	Australia and New Zealand	Oceania	False
5505411	Henderson	36.0397	-114.98194	257729	USA	United States	Northern America	Americas	False
1278340	Aruppukkottai	9.50842	78.09449	85369	IND	India	Southern Asia	Asia	False
1310460	Martaban	16.52834	97.6157	48629	MMR	Myanmar (Burma)	South-Eastern Asia	Asia	False
786827	Požarevac	44.62133	21.18782	41736	SRB	Serbia	Southern Europe	Europe	False
2523533	Sambuca di Sicilia	37.65294	13.11462	5903	ITA	Italy	Southern Europe	Europe	False
1606030	Surin	14.88181	103.49364	46673	THA	Thailand	South-Eastern Asia	Asia	False
2905496	Herzberg am Harz	51.65546	10.33938	14948	DEU	Germany	Western Europe	Europe	False
622997	Pruzhany	52.556	24.4573	19135	BLR	Belarus	Eastern Europe	Europe	False
5374361	Monterey	36.60024	-121.89468	27810	USA	United States	Northern America	Americas	False
1147290	Balkh	36.75635	66.8972	114883	AFG	Afghanistan	Southern Asia	Asia	False
2752923	Kerkrade	50.86583	6.0625	49777	NLD	Netherlands	Western Europe	Europe	False
98717	Ramadi	33.42056	43.30778	274539	IRQ	Iraq	Western Asia	Asia	False
295328	Dimona	31.07079	35.03269	33558	ISR	Israel	Western Asia	Asia	False
5942913	Dryden	49.78334	-92.75032	8195	CAN	Canada	Northern America	Americas	False
524712	Mozhaysk	55.50194	36.02722	31557	RUS	Russia	Eastern Europe	Europe	False
1496476	Nyagan	62.14056	65.39361	52137	RUS	Russia	Eastern Europe	Europe	False
2654634	Broadstone	50.75717	-1.99406	10256	GBR	United Kingdom	Northern Europe	Europe	False
2654635	Broadstairs	51.35908	1.43938	23283	GBR	United Kingdom	Northern Europe	Europe	False
3441074	Piriápolis	-34.86287	-55.27471	7968	URY	Uruguay	South America	Americas	False
950709	Swellendam	-34.02262	20.44171	13674	ZAF	South Africa	Southern Africa	Africa	False
2032054	Choibalsan	48.07257	114.53264	23	MNG	Mongolia	Eastern Asia	Asia	False
5155572	Geneva	41.80505	-80.94815	6215	USA	United States	Northern America	Americas	False
2982330	Roye	49.70038	2.78959	6655	FRA	France	Western Europe	Europe	False
2294206	Wa	10.06069	-2.50192	78107	GHA	Ghana	Western Africa	Africa	False
3074805	Hronov	50.47968	16.1823	6516	CZE	Czech Republic	Eastern Europe	Europe	False
655808	Joensuu	62.60118	29.76316	53388	FIN	Finland	Northern Europe	Europe	False
459201	Jūrmala	56.968	23.77038	54088	LVA	Latvia	Northern Europe	Europe	False
5145028	Woodmere	40.63205	-73.71263	17121	USA	United States	Northern America	Americas	False
295365	Dāliyat el Karmil	32.69383	35.04686	25000	ISR	Israel	Western Asia	Asia	False
5374406	Monterey Park	34.06251	-118.12285	60269	USA	United States	Northern America	Americas	False
2523591	Roggiano Gravina	39.61786	16.16173	5693	ITA	Italy	Southern Europe	Europe	False
295370	Dabbūrīya	32.69256	35.37123	8305	ISR	Israel	Western Asia	Asia	False
688587	Yahotyn	50.27975	31.76246	22779	UKR	Ukraine	Eastern Europe	Europe	False
3178957	Cesena	44.1391	12.24315	79398	ITA	Italy	Southern Europe	Europe	False
2654285	Burley in Wharfedale	53.9102	-1.75798	5996	GBR	United Kingdom	Northern Europe	Europe	False
3408337	Açu	-5.57667	-36.90861	36125	BRA	Brazil	South America	Americas	False
2654675	Bristol	51.45523	-2.59665	430713	GBR	United Kingdom	Northern Europe	Europe	False
2621912	Frederikssund	55.83956	12.06896	14564	DNK	Denmark	Northern Europe	Europe	False
1185188	Rangpur	25.74664	89.25166	343122	BGD	Bangladesh	Southern Asia	Asia	False
360923	Al Khārijah	25.45141	30.54635	67700	EGY	Egypt	Northern Africa	Africa	False
2523612	Riposto	37.73183	15.20576	11719	ITA	Italy	Southern Europe	Europe	False
3572189	High Rock	26.60999	-78.27863	3744	BHS	Bahamas, The	Caribbean	Americas	False
3169424	Riccione	43.99942	12.65689	32744	ITA	Italy	Southern Europe	Europe	False
2621927	Frederikshavn	57.44073	10.53661	24103	DNK	Denmark	Northern Europe	Europe	False
164328	Ash Shaykh Miskīn	32.82944	36.15933	25920	SYR	Syria	Western Asia	Asia	False
2762290	Vorchdorf	48.00388	13.92122	7455	AUT	Austria	Western Europe	Europe	False
2523630	Reggio Calabria	38.11047	15.66129	169140	ITA	Italy	Southern Europe	Europe	False
3435261	Concordia	-31.39296	-58.02089	145210	ARG	Argentina	South America	Americas	False
3178992	Cervignano del Friuli	45.82082	13.33929	12275	ITA	Italy	Southern Europe	Europe	False
2753010	Katwijk aan Zee	52.20333	4.39861	20010	NLD	Netherlands	Western Europe	Europe	False
2753011	Katwijk aan den Rijn	52.19417	4.42222	5940	NLD	Netherlands	Western Europe	Europe	False
2654710	Brighton	50.82838	-0.13947	139001	GBR	United Kingdom	Northern Europe	Europe	False
4915703	Watseka	40.77615	-87.73642	5255	USA	United States	Northern America	Americas	False
3015160	Grande-Synthe	51.0154	2.29975	23213	FRA	France	Western Europe	Europe	False
6324729	Halifax	44.64533	-63.57239	359111	CAN	Canada	Northern America	Americas	False
2997351	Louveciennes	48.86115	2.11463	7523	FRA	France	Western Europe	Europe	False
6324733	St. John's	47.56494	-52.70931	99182	CAN	Canada	Northern America	Americas	False
2621951	Fredericia	55.56568	9.75257	36946	DNK	Denmark	Northern Europe	Europe	False
2654721	Brigg	53.55201	-0.49214	5988	GBR	United Kingdom	Northern Europe	Europe	False
2654269	Burnham-on-Sea	51.23862	-2.9978	18401	GBR	United Kingdom	Northern Europe	Europe	False
1606147	Songkhla	7.19882	100.5951	84264	THA	Thailand	South-Eastern Asia	Asia	False
2654724	Brierley Hill	52.48173	-2.12139	28000	GBR	United Kingdom	Northern Europe	Europe	False
2654726	Bridport	50.7338	-2.75831	13266	GBR	United Kingdom	Northern Europe	Europe	False
295432	Bet Shemesh	31.73072	34.99293	67100	ISR	Israel	Western Asia	Asia	False
524809	Mostovskoy	44.41222	40.79361	25188	RUS	Russia	Eastern Europe	Europe	False
2654730	Bridgwater	51.12837	-3.00356	38020	GBR	United Kingdom	Northern Europe	Europe	False
295435	Bet She’an	32.49728	35.49632	16800	ISR	Israel	Western Asia	Asia	False
459279	Jelgava	56.65	23.71278	61791	LVA	Latvia	Northern Europe	Europe	False
3179024	Certaldo	43.54768	11.03924	12981	ITA	Italy	Southern Europe	Europe	False
2971054	Valence	44.10823	0.89101	5039	FRA	France	Western Europe	Europe	False
4915734	Waukegan	42.36363	-87.84479	89078	USA	United States	Northern America	Americas	False
2654747	Bridge of Allan	56.15402	-3.94631	5073	GBR	United Kingdom	Northern Europe	Europe	False
3047967	Mohács	45.99306	18.68306	18711	HUN	Hungary	Eastern Europe	Europe	False
1835553	Suwon-si	37.29111	127.00889	1242724	KOR	Korea, South	Eastern Asia	Asia	False
360995	Giza	30.00808	31.21093	2443203	EGY	Egypt	Northern Africa	Africa	False
5571109	Shasta Lake	40.68043	-122.37084	10164	USA	United States	Northern America	Americas	False
98854	An Nāşirīyah	31.05799	46.25726	400249	IRQ	Iraq	Western Asia	Asia	False
2523687	Praia a Mare	39.8941	15.78421	6470	ITA	Italy	Southern Europe	Europe	False
3408424	Abaetetuba	-1.71806	-48.8825	78050	BRA	Brazil	South America	Americas	False
98860	Najaf	32.02594	44.34625	482576	IRQ	Iraq	Western Asia	Asia	False
2523693	Pozzallo	36.73028	14.84672	18166	ITA	Italy	Southern Europe	Europe	False
5145135	Wyandanch	40.75399	-73.3604	11647	USA	United States	Northern America	Americas	False
3015902	Givors	45.58415	4.77256	18198	FRA	France	Western Europe	Europe	False
2982454	Roussillon	45.37302	4.80725	8082	FRA	France	Western Europe	Europe	False
2523705	Porto Empedocle	37.28942	13.52494	16574	ITA	Italy	Southern Europe	Europe	False
3179066	Cernusco sul Naviglio	45.52526	9.33297	29078	ITA	Italy	Southern Europe	Europe	False
3179067	Cernobbio	45.84307	9.07194	6790	ITA	Italy	Southern Europe	Europe	False
2654782	Brentwood	51.62127	0.30556	47606	GBR	United Kingdom	Northern Europe	Europe	False
721472	Debrecen	47.53333	21.63333	204124	HUN	Hungary	Eastern Europe	Europe	False
2884161	Kreuzberg	52.49973	13.40338	147532	DEU	Germany	Western Europe	Europe	False
2654787	Brentford	51.48619	-0.3083	10750	GBR	United Kingdom	Northern Europe	Europe	False
1638981	Kutoarjo	-7.71694	109.91278	31352	IDN	Indonesia	South-Eastern Asia	Asia	False
2261577	Vila Viçosa	38.7777	-7.41793	5484	PRT	Portugal	Southern Europe	Europe	False
2753106	Kampen	52.555	5.91111	48980	NLD	Netherlands	Western Europe	Europe	False
3063907	Trutnov	50.56101	15.9127	31398	CZE	Czech Republic	Eastern Europe	Europe	False
655958	Järvenpää	60.47369	25.08992	38148	FIN	Finland	Northern Europe	Europe	False
3179097	Cerese	45.11814	10.78877	7368	ITA	Italy	Southern Europe	Europe	False
5964378	Grand Falls-Windsor	48.93324	-55.66492	12076	CAN	Canada	Northern America	Americas	False
3441243	Paysandú	-32.32139	-58.07556	73249	URY	Uruguay	South America	Americas	False
459357	Jaunpils	56.7325	23.01361	1029	LVA	Latvia	Northern Europe	Europe	False
2261598	Vila Real de Santo António	37.195	-7.41766	11560	PRT	Portugal	Southern Europe	Europe	False
1606239	Si Sa Ket	15.11481	104.32938	44751	THA	Thailand	South-Eastern Asia	Asia	False
262752	Elefsína	38.04135	23.54295	24910	GRC	Greece	Southern Europe	Europe	False
2654817	Brecon	51.94612	-3.38887	7989	GBR	United Kingdom	Northern Europe	Europe	False
361058	Alexandria	31.21564	29.95527	3811516	EGY	Egypt	Northern Africa	Africa	False
3015267	Grand-Couronne	49.35563	1.00647	9569	FRA	France	Western Europe	Europe	False
524901	Moscow	55.75222	37.61556	10381222	RUS	Russia	Eastern Europe	Europe	False
2654824	Brechin	56.72993	-2.65729	6977	GBR	United Kingdom	Northern Europe	Europe	False
688746	Vynohradiv	48.14135	23.02666	27600	UKR	Ukraine	Eastern Europe	Europe	False
2622061	Fløng	55.66212	12.18698	11108	DNK	Denmark	Northern Europe	Europe	False
688750	Vylkove	45.40214	29.58595	8916	UKR	Ukraine	Eastern Europe	Europe	False
590447	Maardu	59.47667	25.025	16630	EST	Estonia	Northern Europe	Europe	False
5095528	Bedminster	40.68066	-74.64544	8165	USA	United States	Northern America	Americas	False
2523762	Pizzo	38.75259	16.18696	7918	ITA	Italy	Southern Europe	Europe	False
715126	Szolnok	47.18333	20.2	75474	HUN	Hungary	Eastern Europe	Europe	False
4129397	Russellville	35.27842	-93.13379	27920	USA	United States	Northern America	Americas	False
3441273	Paso de los Toros	-32.81667	-56.51667	13221	URY	Uruguay	South America	Americas	False
1802875	Guankou	28.15861	113.62709	1380000	CHN	China, People's Republic of	Eastern Asia	Asia	False
5106453	Willingboro	40.02789	-74.86905	31668	USA	United States	Northern America	Americas	False
295553	Basmat Ṭab‘ūn	32.73898	35.15716	6300	ISR	Israel	Western Asia	Asia	False
933995	Souillac	-20.51667	57.51667	4392	MUS	Mauritius	Eastern Africa	Africa	False
3179141	Ceprano	41.54572	13.51473	5740	ITA	Italy	Southern Europe	Europe	False
4031110	Fale old settlement	-9.38516	-171.24675	120	TKL	Tokelau	Polynesia	Oceania	False
2261639	Vila Franca de Xira	38.95525	-8.98966	18355	PRT	Portugal	Southern Europe	Europe	False
2851465	Quedlinburg	51.78843	11.15006	22814	DEU	Germany	Western Europe	Europe	False
1278602	Angamāli	10.2	76.4	34399	IND	India	Southern Asia	Asia	False
557710	Gvardeysk	54.64772	21.06513	13088	RUS	Russia	Eastern Europe	Europe	False
3457133	Miracema	-21.41222	-42.19667	26684	BRA	Brazil	South America	Americas	False
3703443	Panamá	8.9936	-79.51973	408168	PAN	Panama	Central America	Americas	False
2687636	Nynäshamn	58.90337	17.94793	13616	SWE	Sweden	Northern Europe	Europe	False
2884245	Kreuzau	50.74699	6.49069	18400	DEU	Germany	Western Europe	Europe	False
3572375	Freeport	26.53333	-78.7	26910	BHS	Bahamas, The	Caribbean	Americas	False
3577284	Angochi	12.51667	-69.95	29442	ABW	Aruba	Caribbean	Americas	False
3179162	Cento	44.73099	11.28716	18191	ITA	Italy	Southern Europe	Europe	False
2163355	Hobart	-42.87936	147.32941	216656	AUS	Australia	Australia and New Zealand	Oceania	False
2878234	Leverkusen	51.0303	6.98432	162738	DEU	Germany	Western Europe	Europe	False
4752031	Charlottesville	38.02931	-78.47668	43475	USA	United States	Northern America	Americas	False
1179760	Dīpālpur	30.67091	73.65292	74640	PAK	Pakistan	Southern Asia	Asia	False
3080866	Zakopane	49.29899	19.94885	27580	POL	Poland	Eastern Europe	Europe	False
5178027	Aliquippa	40.63673	-80.24006	9438	USA	United States	Northern America	Americas	False
2523825	Petilia Policastro	39.11293	16.78167	5704	ITA	Italy	Southern Europe	Europe	False
3179190	Cellino San Marco	40.47133	17.96427	6696	ITA	Italy	Southern Europe	Europe	False
721592	Csongrád	46.71332	20.14241	18580	HUN	Hungary	Eastern Europe	Europe	False
2734395	São Miguel do Couto	41.33167	-8.46185	5416	PRT	Portugal	Southern Europe	Europe	False
1802940	Puning	23.31072	116.16869	118023	CHN	China, People's Republic of	Eastern Asia	Asia	False
2637941	Shirebrook	53.20333	-1.21336	10644	GBR	United Kingdom	Northern Europe	Europe	False
5014208	Waverly	42.7392	-84.62081	23925	USA	United States	Northern America	Americas	False
2261697	Vialonga	38.87094	-9.06823	16088	PRT	Portugal	Southern Europe	Europe	False
295620	Ashqelon	31.66926	34.57149	105995	ISR	Israel	Western Asia	Asia	False
2130629	Asahikawa	43.77063	142.36489	356612	JPN	Japan	Eastern Asia	Asia	False
2965715	Carrigaline	51.81167	-8.39861	14775	IRL	Ireland	Northern Europe	Europe	False
2714401	Flen	59.05834	16.58781	6114	SWE	Sweden	Northern Europe	Europe	False
3670730	Rionegro	6.15515	-75.37371	62291	COL	Colombia	South America	Americas	False
3014816	Gravelines	50.98651	2.12807	13137	FRA	France	Western Europe	Europe	False
295629	Ashdod	31.79213	34.64966	224656	ISR	Israel	Western Asia	Asia	False
2654927	Bramhall	53.35801	-2.16539	25506	GBR	United Kingdom	Northern Europe	Europe	False
3179216	Celano	42.08077	13.517	9966	ITA	Italy	Southern Europe	Europe	False
1125155	Shīnḏanḏ	33.30294	62.1474	29264	AFG	Afghanistan	Southern Asia	Asia	False
2687700	Nyköping	58.753	17.00788	27582	SWE	Sweden	Northern Europe	Europe	False
787157	Pejë	42.65913	20.28828	81800	RKS	Kosovo		Asia	False
2523864	Patti	38.14736	14.96409	9321	ITA	Italy	Southern Europe	Europe	False
3670745	Ríohacha	11.54444	-72.90722	92431	COL	Colombia	South America	Americas	False
2654938	Braintree	51.87819	0.55292	46765	GBR	United Kingdom	Northern Europe	Europe	False
361179	Al Ḩawāmidīyah	29.9	31.25	106841	EGY	Egypt	Northern Africa	Africa	False
3146463	Mandal	58.0274	7.45342	10143	NOR	Norway	Northern Europe	Europe	False
2130658	Aomorishi	40.81667	140.73333	298394	JPN	Japan	Eastern Asia	Asia	False
4833403	East Hartford	41.78232	-72.61203	51252	USA	United States	Northern America	Americas	False
2239862	Malanje	-9.54015	16.34096	87046	AGO	Angola	Middle Africa	Africa	False
3146470	Malvik	63.43333	10.68333	6419	NOR	Norway	Northern Europe	Europe	False
5407463	Waterford	37.64132	-120.76048	8456	USA	United States	Northern America	Americas	False
4817641	Parkersburg	39.26674	-81.56151	31492	USA	United States	Northern America	Americas	False
5767918	Pierre	44.36832	-100.35097	13646	USA	United States	Northern America	Americas	False
5112559	Chittenango	43.04507	-75.86658	5081	USA	United States	Northern America	Americas	False
3080944	Żagań	51.61759	15.31486	26251	POL	Poland	Eastern Europe	Europe	False
99060	Al Mishkhāb	31.80437	44.4893	23189	IRQ	Iraq	Western Asia	Asia	False
2720501	Borås	57.72101	12.9401	63223	SWE	Sweden	Northern Europe	Europe	False
1278710	Amritsar	31.62234	74.87534	1092450	IND	India	Southern Asia	Asia	False
2884344	Kressbronn am Bodensee	47.5976	9.59707	7834	DEU	Germany	Western Europe	Europe	False
2982652	Rouen	49.44313	1.09932	112787	FRA	France	Western Europe	Europe	False
2635150	Upminster	51.55594	0.2556	10000	GBR	United Kingdom	Northern Europe	Europe	False
2790869	Mons	50.45413	3.95229	91277	BEL	Belgium	Western Europe	Europe	False
99072	Mosul	36.335	43.11889	1739800	IRQ	Iraq	Western Asia	Asia	False
4489985	Salisbury	35.67097	-80.47423	33662	USA	United States	Northern America	Americas	False
656130	Jakobstad	63.67486	22.70256	19238	FIN	Finland	Northern Europe	Europe	False
2648875	Garforth	53.79173	-1.38067	15737	GBR	United Kingdom	Northern Europe	Europe	False
2523908	Palma di Montechiaro	37.19066	13.76603	22654	ITA	Italy	Southern Europe	Europe	False
2392837	Malanville	11.86819	3.38327	37117	BEN	Benin	Western Africa	Africa	False
2360073	Houndé	11.5	-3.51667	36593	BFA	Burkina Faso	Western Africa	Africa	False
3113738	Pereiro de Aguiar	42.34524	-7.80008	5443	ESP	Spain	Southern Europe	Europe	False
5374732	Moreno Valley	33.93752	-117.23059	193365	USA	United States	Northern America	Americas	False
5178127	Allentown	40.60843	-75.49018	118032	USA	United States	Northern America	Americas	False
2523920	Palermo	38.13205	13.33561	648260	ITA	Italy	Southern Europe	Europe	False
2654993	Bradford	53.79391	-1.75206	299310	GBR	United Kingdom	Northern Europe	Europe	False
164626	Shahbā	32.85514	36.62896	14784	SYR	Syria	Western Asia	Asia	False
754454	Wyszków	52.59278	21.4584	26628	POL	Poland	Eastern Europe	Europe	False
5931800	Cranbrook	49.49991	-115.76879	18610	CAN	Canada	Northern America	Americas	False
3080985	Zabrze	50.32492	18.78576	192177	POL	Poland	Eastern Europe	Europe	False
6095645	Owen Sound	44.56717	-80.94349	22625	CAN	Canada	Northern America	Americas	False
5145374	Ada	40.7695	-83.82271	5952	USA	United States	Northern America	Americas	False
5365113	Larkspur	37.93409	-122.53525	11926	USA	United States	Northern America	Americas	False
1278752	Ammāpettai	10.79588	79.31836	14528	IND	India	Southern Asia	Asia	False
3179297	Cavaria Con Premezzo	45.69247	8.80299	5639	ITA	Italy	Southern Europe	Europe	False
2523938	Pachino	36.71522	15.09019	20493	ITA	Italy	Southern Europe	Europe	False
4756955	East Hampton	37.03737	-76.33161	147993	USA	United States	Northern America	Americas	False
787237	Pančevo	44.87083	20.64028	76654	SRB	Serbia	Southern Europe	Europe	False
3072649	Kroměříž	49.29785	17.39312	29126	CZE	Czech Republic	Eastern Europe	Europe	False
295721	‘Akko	32.92814	35.07647	45603	ISR	Israel	Western Asia	Asia	False
4850478	Carroll	42.06582	-94.86693	10103	USA	United States	Northern America	Americas	False
218253	Bondo	3.81461	23.68665	17860	COD	Congo, (Congo  Kinshasa)	Middle Africa	Africa	False
2917170	Groitzsch	51.15536	12.28279	7607	DEU	Germany	Western Europe	Europe	False
5810995	Snoqualmie	47.52871	-121.82539	10670	USA	United States	Northern America	Americas	False
5854686	Waipahu	21.38667	-158.00917	38216	USA	United States	Northern America	Americas	False
1246007	Gampaha	7.0897	79.9925	9350	LKA	Sri Lanka	Southern Asia	Asia	False
4752186	Chesapeake	36.81904	-76.27494	222209	USA	United States	Northern America	Americas	False
295739	‘Afula ‘Illit	32.63221	35.32533	40000	ISR	Israel	Western Asia	Asia	False
99135	Kufa	32.05114	44.44017	110000	IRQ	Iraq	Western Asia	Asia	False
2643425	Ludlow	52.37431	-2.71311	9761	GBR	United Kingdom	Northern Europe	Europe	False
1835848	Seoul	37.566	126.9784	10349312	KOR	Korea, South	Eastern Asia	Asia	False
3179337	Cava Dè Tirreni	40.69954	14.70773	48127	ITA	Italy	Southern Europe	Europe	False
3016524	Gauchy	49.82765	3.27371	5676	FRA	France	Western Europe	Europe	False
2753355	IJsselstein	52.02	5.04306	33886	NLD	Netherlands	Western Europe	Europe	False
4724194	Rowlett	32.9029	-96.56388	56199	USA	United States	Northern America	Americas	False
6619277	Knjazevac	43.56634	22.25701	25000	SRB	Serbia	Southern Europe	Europe	False
2517816	Estepona	36.42764	-5.14589	65592	ESP	Spain	Southern Europe	Europe	False
525138	Morshansk	53.44354	41.81065	43311	RUS	Russia	Eastern Europe	Europe	False
3179347	Cattolica	43.96182	12.73631	16189	ITA	Italy	Southern Europe	Europe	False
3081046	Ząbkowice Śląskie	50.58969	16.81239	16321	POL	Poland	Eastern Europe	Europe	False
492376	Skopin	53.82486	39.55053	24357	RUS	Russia	Eastern Europe	Europe	False
2655069	Bowdon	53.37644	-2.36532	6214	GBR	United Kingdom	Northern Europe	Europe	False
1016670	Botshabelo	-29.26737	26.72595	309714	ZAF	South Africa	Southern Africa	Africa	False
4195168	Fitzgerald	31.71491	-83.25265	9053	USA	United States	Northern America	Americas	False
4719457	Plano	33.01984	-96.69889	259841	USA	United States	Northern America	Americas	False
2982757	Rosny-sous-Bois	48.87017	2.4991	41627	FRA	France	Western Europe	Europe	False
459624	Iecava	56.59861	24.20222	4000	LVA	Latvia	Northern Europe	Europe	False
2524009	Nicosia	37.74747	14.39218	10174	ITA	Italy	Southern Europe	Europe	False
7701354	Azimpur	23.7298	90.3854	96641	BGD	Bangladesh	Southern Asia	Asia	False
2524013	Nicastro-Sambiase	38.97089	16.31285	55687	ITA	Italy	Southern Europe	Europe	False
2949998	Bernkastel-Kues	49.91602	7.07664	6880	DEU	Germany	Western Europe	Europe	False
2655095	Bournemouth	50.72048	-1.8795	163600	GBR	United Kingdom	Northern Europe	Europe	False
1344377	Haldia	22.06046	88.10975	170695	IND	India	Southern Asia	Asia	False
3015546	Gourdon	44.73333	1.38333	5342	FRA	France	Western Europe	Europe	False
617279	Sîngera	46.91557	28.96673	7200	MDA	Moldova	Eastern Europe	Europe	False
3539093	San Luis	20.18809	-75.85031	67293	CUB	Cuba	Caribbean	Americas	False
518976	Novocheboksarsk	56.11095	47.47755	128468	RUS	Russia	Eastern Europe	Europe	False
1082243	Ambilobe	-13.2	49.05	56000	MDG	Madagascar	Eastern Africa	Africa	False
5145476	Akron	41.08144	-81.51901	199110	USA	United States	Northern America	Americas	False
688533	Yalta	44.50218	34.16624	77003	UKR	Ukraine	Eastern Europe	Europe	False
1278860	Ambāla	30.36099	76.79782	146787	IND	India	Southern Asia	Asia	False
2655117	Boughton	53.2	-0.98333	10120	GBR	United Kingdom	Northern Europe	Europe	False
2228079	Mbalmayo	3.51667	11.5	80206	CMR	Cameroon	Middle Africa	Africa	False
2747203	Sittard	50.99833	5.86944	48400	NLD	Netherlands	Western Europe	Europe	False
3179415	Castiglione delle Stiviere	45.3902	10.48619	18530	ITA	Italy	Southern Europe	Europe	False
263064	Diónysos	38.10458	23.87938	5651	GRC	Greece	Southern Europe	Europe	False
3156804	Førde	61.45217	5.85717	8510	NOR	Norway	Northern Europe	Europe	False
3179419	Castiglione del Lago	43.12457	12.03982	5344	ITA	Italy	Southern Europe	Europe	False
5964700	Greater Sudbury	46.49	-80.99001	157857	CAN	Canada	Northern America	Americas	False
2884509	Krefeld	51.33921	6.58615	237984	DEU	Germany	Western Europe	Europe	False
2687902	Nybro	56.74461	15.90714	12059	SWE	Sweden	Northern Europe	Europe	False
2753439	Hulst	51.28	4.05278	10802	NLD	Netherlands	Western Europe	Europe	False
4817825	Pea Ridge	38.41397	-82.31987	6650	USA	United States	Northern America	Americas	False
2655138	Boston	52.97633	-0.02664	35859	GBR	United Kingdom	Northern Europe	Europe	False
3441575	Montevideo	-34.90328	-56.18816	1270737	URY	Uruguay	South America	Americas	False
5243819	Altoona	44.80468	-91.44321	6706	USA	United States	Northern America	Americas	False
2294700	Tema	5.6698	-0.01657	155782	GHA	Ghana	Western Africa	Africa	False
2360238	Gourcy	13.20776	-2.35893	16765	BFA	Burkina Faso	Western Africa	Africa	False
2622383	Faaborg	55.0951	10.24226	7239	DNK	Denmark	Northern Europe	Europe	False
3933104	Pangoa	-12.11667	-73.0	6638	PER	Peru	South America	Americas	False
2720689	Bollebygd	57.66866	12.57272	6364	SWE	Sweden	Northern Europe	Europe	False
2786226	Staden	50.97456	3.01469	10786	BEL	Belgium	Western Europe	Europe	False
3179443	Castel Volturno	41.03288	13.94354	21881	ITA	Italy	Southern Europe	Europe	False
3113910	Peñaranda de Bracamonte	40.90108	-5.20026	6260	ESP	Spain	Southern Europe	Europe	False
2950073	Bernburg	51.79464	11.7401	32113	DEU	Germany	Western Europe	Europe	False
1606586	Samut Songkhram	13.41456	100.00264	35065	THA	Thailand	South-Eastern Asia	Asia	False
2998431	Liévin	50.4198	2.78068	34370	FRA	France	Western Europe	Europe	False
4948924	Rockland	42.13066	-70.91616	17982	USA	United States	Northern America	Americas	False
623549	Pinsk	52.1229	26.0951	130777	BLR	Belarus	Eastern Europe	Europe	False
2425791	Sagh	9.1429	18.3923	102528	TCD	Chad	Middle Africa	Africa	False
2655168	Borrowash	52.90673	-1.38411	5746	GBR	United Kingdom	Northern Europe	Europe	False
4916161	Western Springs	41.80975	-87.90062	12975	USA	United States	Northern America	Americas	False
1508291	Chelyabinsk	55.15402	61.42915	1062919	RUS	Russia	Eastern Europe	Europe	False
3081158	Wyrzysk	53.153	17.26802	5263	POL	Poland	Eastern Europe	Europe	False
2294727	Techiman	7.58617	-1.94137	69720	GHA	Ghana	Western Africa	Africa	False
2917325	Grimma	51.23367	12.71959	17991	DEU	Germany	Western Europe	Europe	False
164816	Sarāqib	35.86447	36.80591	34231	SYR	Syria	Western Asia	Asia	False
2655186	Borehamwood	51.65468	-0.27762	32176	GBR	United Kingdom	Northern Europe	Europe	False
1265709	Kulu	31.95835	77.10823	19831	IND	India	Southern Asia	Asia	False
3020281	Elne	42.60031	2.97146	7007	FRA	France	Western Europe	Europe	False
3671002	Ramiriquí	5.4002	-73.33544	5039	COL	Colombia	South America	Americas	False
361435	Al Balyanā	26.23568	32.00347	48801	EGY	Egypt	Northern Africa	Africa	False
2982876	Roquebrune-Cap-Martin	43.76408	7.48207	11834	FRA	France	Western Europe	Europe	False
2360286	Goulouré	12.2276	-1.92922	6677	BFA	Burkina Faso	Western Africa	Africa	False
488606	Starotitarovskaya	45.21938	37.15476	12351	RUS	Russia	Eastern Europe	Europe	False
3113957	Peñafiel	41.60165	-4.11418	5455	ESP	Spain	Southern Europe	Europe	False
1185276	Bājitpur	24.21623	90.95002	34560	BGD	Bangladesh	Southern Asia	Asia	False
2655210	Bonnyrigg	55.87329	-3.1051	14694	GBR	United Kingdom	Northern Europe	Europe	False
360615	Al Qanāţir al Khayrīyah	30.19327	31.13703	56302	EGY	Egypt	Northern Africa	Africa	False
1606638	Sam Phran	13.72698	100.21526	37115	THA	Thailand	South-Eastern Asia	Asia	False
2622447	Esbjerg	55.47028	8.45187	72205	DNK	Denmark	Northern Europe	Europe	False
2294768	Tarkwa	5.30644	-1.98474	34941	GHA	Ghana	Western Africa	Africa	False
558066	Gul’kevichi	45.35383	40.69465	34953	RUS	Russia	Eastern Europe	Europe	False
1283582	Biratnagar	26.45505	87.27007	182324	NPL	Nepal	Southern Asia	Asia	False
3179514	Castelnuovo Rangone	44.54935	10.9335	8064	ITA	Italy	Southern Europe	Europe	False
5248511	Chippewa Falls	44.93691	-91.39293	13661	USA	United States	Northern America	Americas	False
4194474	Fayetteville	33.44873	-84.45493	15945	USA	United States	Northern America	Americas	False
1278974	Almora	29.59713	79.65911	32442	IND	India	Southern Asia	Asia	False
3441665	Minas	-34.37589	-55.23771	38025	URY	Uruguay	South America	Americas	False
2655237	Bolton	53.58333	-2.43333	141331	GBR	United Kingdom	Northern Europe	Europe	False
3048456	Marcali	46.58498	17.41196	12344	HUN	Hungary	Eastern Europe	Europe	False
3015689	Gonesse	48.98693	2.44892	26758	FRA	France	Western Europe	Europe	False
2524170	Messina	38.19394	15.55256	219948	ITA	Italy	Southern Europe	Europe	False
4850699	Cedar Falls	42.52776	-92.44547	39260	USA	United States	Northern America	Americas	False
2524172	Mesoraca	39.07948	16.78808	6158	ITA	Italy	Southern Europe	Europe	False
2655245	Bollington	53.29446	-2.10963	7033	GBR	United Kingdom	Northern Europe	Europe	False
2786318	Spa	50.48375	5.86674	10756	BEL	Belgium	Western Europe	Europe	False
99344	Al Hindīyah	32.54671	44.22765	57490	IRQ	Iraq	Western Asia	Asia	False
2976600	Saint-Vincent-de-Tyrosse	43.66031	-1.30799	5898	FRA	France	Western Europe	Europe	False
1278994	Allahābād	25.44478	81.84322	1073438	IND	India	Southern Asia	Asia	False
99347	Al Ḩillah	32.46367	44.41963	289709	IRQ	Iraq	Western Asia	Asia	False
3441684	Mercedes	-33.2524	-58.03047	42359	URY	Uruguay	South America	Americas	False
99350	Al Ḩayy	32.17419	46.04345	78272	IRQ	Iraq	Western Asia	Asia	False
3179546	Castelnovo ne'Monti	44.43556	10.40329	10046	ITA	Italy	Southern Europe	Europe	False
3179547	Castelnovo di Sotto	44.81253	10.56694	7401	ITA	Italy	Southern Europe	Europe	False
2655262	Bognor Regis	50.78206	-0.67978	65391	GBR	United Kingdom	Northern Europe	Europe	False
787487	Ohrid	41.11722	20.80194	54908	MKD	Macedonia	Southern Europe	Europe	False
492579	Siverskiy	59.35444	30.07833	12076	RUS	Russia	Eastern Europe	Europe	False
3441702	Melo	-32.37028	-54.1675	51023	URY	Uruguay	South America	Americas	False
702723	Lubny	50.01625	32.99694	52600	UKR	Ukraine	Eastern Europe	Europe	False
99369	Al Hārithah	30.58481	47.76114	92395	IRQ	Iraq	Western Asia	Asia	False
7701549	Ngetkib	7.36451	134.51484	62	PLW	Palau	Micronesia	Oceania	False
132144	Hamadān	34.79922	48.51456	528256	IRN	Iran	Southern Asia	Asia	False
2283016	Odienné	9.50511	-7.56433	49857	CIV	Cote d'Ivoire (Ivory Coast)	Western Africa	Africa	False
4228147	Valdosta	30.83334	-83.28032	54518	USA	United States	Northern America	Americas	False
1803318	Linyi	35.06306	118.34278	270669	CHN	China, People's Republic of	Eastern Asia	Asia	False
2982967	Romorantin-Lanthenay	47.36667	1.75	19953	FRA	France	Western Europe	Europe	False
1180729	Dālbandīn	28.88846	64.40616	14621	PAK	Pakistan	Southern Asia	Asia	False
2884667	Krauchenwies	48.03333	9.25	5020	DEU	Germany	Western Europe	Europe	False
787516	Obrenovac	44.65486	20.20017	16821	SRB	Serbia	Southern Europe	Europe	False
4850751	Cedar Rapids	42.00833	-91.64407	126326	USA	United States	Northern America	Americas	False
4916288	Wheaton	41.86614	-88.10701	52894	USA	United States	Northern America	Americas	False
1803331	Linxia Chengguanzhen	35.60028	103.20639	202402	CHN	China, People's Republic of	Eastern Asia	Asia	False
1279050	Alāwalpur	31.43161	75.65614	7410	IND	India	Southern Asia	Asia	False
3671116	Quibdó	5.69188	-76.65835	75104	COL	Colombia	South America	Americas	False
2747234	Sint-Michielsgestel	51.64167	5.35278	10380	NLD	Netherlands	Western Europe	Europe	False
787534	Obiliq	42.68694	21.07028	11612	RKS	Kosovo		Asia	False
164947	As Salamīyah	35.01127	37.05324	94887	SYR	Syria	Western Asia	Asia	False
3429902	Pontevedra	-34.74785	-58.70072	33515	ARG	Argentina	South America	Americas	False
5866583	Kodiak	57.79	-152.40722	6130	USA	United States	Northern America	Americas	False
1803352	Linshui	36.42472	114.20472	109955	CHN	China, People's Republic of	Eastern Asia	Asia	False
4490329	Sanford	35.47988	-79.1803	28094	USA	United States	Northern America	Americas	False
590939	Kuressaare	58.24806	22.50389	14921	EST	Estonia	Northern Europe	Europe	False
2294877	Tamale	9.40079	-0.8393	360579	GHA	Ghana	Western Africa	Africa	False
3386213	Touros	-5.19889	-35.46083	7662	BRA	Brazil	South America	Americas	False
5538914	Enoch	37.77331	-113.02439	5803	USA	United States	Northern America	Americas	False
4883555	Arlington Heights	42.08836	-87.98063	75101	USA	United States	Northern America	Americas	False
1803364	Linqu	36.51556	118.53972	77472	CHN	China, People's Republic of	Eastern Asia	Asia	False
1803365	Linqiong	30.41587	103.46089	55587	CHN	China, People's Republic of	Eastern Asia	Asia	False
2753638	Hoorn	52.6425	5.05972	68852	NLD	Netherlands	Western Europe	Europe	False
4719720	Pleasanton	28.96719	-98.47863	8934	USA	United States	Northern America	Americas	False
2337639	Ilorin	8.49664	4.54214	814192	NGA	Nigeria	Western Africa	Africa	False
3096765	Kamień Pomorski	53.96849	14.77262	9036	POL	Poland	Eastern Europe	Europe	False
5178481	Ardmore	40.00678	-75.28546	12455	USA	United States	Northern America	Americas	False
1512979	Qo‘qon	40.52861	70.9425	187477	UZB	Uzbekistan	Central Asia	Asia	False
2786420	Soignies	50.57904	4.07129	24869	BEL	Belgium	Western Europe	Europe	False
1279094	Akot	21.0963	77.0588	86917	IND	India	Southern Asia	Asia	False
5604473	Preston	42.09631	-111.87662	5204	USA	United States	Northern America	Americas	False
2851962	Pritzwalk	53.14945	12.17405	13485	DEU	Germany	Western Europe	Europe	False
7258303	Moorestown-Lenola	39.96591	-74.96441	14217	USA	United States	Northern America	Americas	False
5193920	Hollidaysburg	40.42729	-78.3889	5791	USA	United States	Northern America	Americas	False
6620290	Turgutreis	37.01667	27.26667	16490	TUR	Turkey	Western Asia	Asia	False
2294915	Takoradi	4.88447	-1.75536	232919	GHA	Ghana	Western Africa	Africa	False
787589	Novo Brdo	42.6159	21.43405	6720	RKS	Kosovo		Asia	False
3081350	Wronki	52.71051	16.38044	11462	POL	Poland	Eastern Europe	Europe	False
3179655	Castellaneta	40.62794	16.9329	14333	ITA	Italy	Southern Europe	Europe	False
1502060	Krasnoural’sk	58.3638	60.0407	27257	RUS	Russia	Eastern Europe	Europe	False
2983050	Romagnat	45.72878	3.09893	8771	FRA	France	Western Europe	Europe	False
787595	Novi Pazar	43.13667	20.51222	85996	SRB	Serbia	Southern Europe	Europe	False
361612	Al ‘Alamayn	30.83007	28.95502	7400	EGY	Egypt	Northern Africa	Africa	False
3179661	Castellammare di Stabia	40.70211	14.48685	65730	ITA	Italy	Southern Europe	Europe	False
3015823	Gleizé	45.99082	4.70071	8749	FRA	France	Western Europe	Europe	False
2917520	Grevesmühlen	53.86337	11.1916	10975	DEU	Germany	Western Europe	Europe	False
2655378	Blandford Forum	50.86073	-2.16174	10073	GBR	United Kingdom	Northern Europe	Europe	False
2638019	Sheringham	52.94078	1.20931	7302	GBR	United Kingdom	Northern Europe	Europe	False
1508501	Chadan	51.28333	91.58333	9246	RUS	Russia	Eastern Europe	Europe	False
6620310	Didsbury	53.41698	-2.23145	14292	GBR	United Kingdom	Northern Europe	Europe	False
3081368	Wrocław	51.1	17.03333	634893	POL	Poland	Eastern Europe	Europe	False
3179675	Castel Goffredo	45.29403	10.473	9871	ITA	Italy	Southern Europe	Europe	False
611866	Skidal’	53.5904	24.2478	10700	BLR	Belarus	Eastern Europe	Europe	False
5178527	Arnold	40.58007	-79.76672	5157	USA	United States	Northern America	Americas	False
2655394	Blairgowrie	56.59157	-3.34045	8081	GBR	United Kingdom	Northern Europe	Europe	False
3179684	Castelfranco Veneto	45.67146	11.92755	25545	ITA	Italy	Southern Europe	Europe	False
3058477	Nové Mesto nad Váhom	48.75763	17.8309	21527	SVK	Slovakia	Eastern Europe	Europe	False
3179686	Castelfranco Emilia	44.59445	11.04979	17315	ITA	Italy	Southern Europe	Europe	False
5211303	Scranton	41.40916	-75.6649	76089	USA	United States	Northern America	Americas	False
4261032	Martinsville	39.42783	-86.42833	11828	USA	United States	Northern America	Americas	False
4588718	Myrtle Beach	33.68906	-78.88669	27109	USA	United States	Northern America	Americas	False
4326575	Gretna	29.91465	-90.05396	17736	USA	United States	Northern America	Americas	False
5244080	Appleton	44.26193	-88.41538	72623	USA	United States	Northern America	Americas	False
3014856	Grasse	43.66667	6.91667	47581	FRA	France	Western Europe	Europe	False
2753719	Hoogeveen	52.7225	6.47639	38754	NLD	Netherlands	Western Europe	Europe	False
2784604	Vilvoorde	50.92814	4.42938	36955	BEL	Belgium	Western Europe	Europe	False
2065594	Mount Isa	-20.72523	139.49727	22785	AUS	Australia	Australia and New Zealand	Oceania	False
361661	Akhmīm	26.56217	31.74503	99446	EGY	Egypt	Northern Africa	Africa	False
4621503	Fairview	35.98201	-87.1214	7720	USA	United States	Northern America	Americas	False
296134	Yunak	38.81418	31.73223	14050	TUR	Turkey	Western Asia	Asia	False
787657	Niš	43.32472	21.90333	250000	SRB	Serbia	Southern Europe	Europe	False
3081419	Wolsztyn	52.11552	16.11712	13689	POL	Poland	Eastern Europe	Europe	False
3164318	Vigonza	45.43484	11.97465	13798	ITA	Italy	Southern Europe	Europe	False
3081430	Wołów	51.33656	16.64429	12276	POL	Poland	Eastern Europe	Europe	False
3179735	Castel Bolognese	44.31981	11.79903	7537	ITA	Italy	Southern Europe	Europe	False
912226	Kataba	-11.88333	29.78333	14000	ZMB	Zambia	Eastern Africa	Africa	False
5097801	Fairview	40.8126	-73.99903	13835	USA	United States	Northern America	Americas	False
4162783	Longwood	28.70305	-81.3384	13657	USA	United States	Northern America	Americas	False
3015904	Givet	50.13796	4.82545	7448	FRA	France	Western Europe	Europe	False
460001	Ērgļi	56.89752	25.63668	2186	LVA	Latvia	Northern Europe	Europe	False
689378	Volodymyr-Volyns’kyy	50.85253	24.32364	38256	UKR	Ukraine	Eastern Europe	Europe	False
2655459	Blackpool	53.81667	-3.05	143101	GBR	United Kingdom	Northern Europe	Europe	False
2610726	Varde	55.62112	8.48069	12735	DNK	Denmark	Northern Europe	Europe	False
3441894	Maldonado	-34.9	-54.95	55478	URY	Uruguay	South America	Americas	False
4538577	Henryetta	35.43983	-95.98194	5927	USA	United States	Northern America	Americas	False
558312	Gryazi	52.49657	39.93593	47413	RUS	Russia	Eastern Europe	Europe	False
3190506	Šmarjeta	45.88333	15.25	326	SVN	Slovenia	Southern Europe	Europe	False
2295021	Sunyani	7.33991	-2.32676	70299	GHA	Ghana	Western Africa	Africa	False
2786545	Sint-Truiden	50.81679	5.18647	37859	BEL	Belgium	Western Europe	Europe	False
2983154	Rodez	44.35258	2.57338	28337	FRA	France	Western Europe	Europe	False
2523347	Sant'Agata di Militello	38.06838	14.636	9916	ITA	Italy	Southern Europe	Europe	False
6325494	Québec	46.81228	-71.21454	528595	CAN	Canada	Northern America	Americas	False
2688250	Norrtälje	59.75799	18.70496	16914	SWE	Sweden	Northern Europe	Europe	False
1279228	Ahmadnagar	19.09457	74.73843	367140	IND	India	Southern Asia	Asia	False
3853935	Icaño	-28.91934	-65.32817	6857	ARG	Argentina	South America	Americas	False
2786559	Sint-Pieters-Leeuw	50.77926	4.24355	30446	BEL	Belgium	Western Europe	Europe	False
1279233	Ahmedabad	23.02579	72.58727	3719710	IND	India	Southern Asia	Asia	False
3653146	Pimampiro	0.39116	-77.94068	7408	ECU	Ecuador	South America	Americas	False
787716	Negotino	41.48456	22.09056	19515	MKD	Macedonia	Southern Europe	Europe	False
3179781	Cassino	41.48581	13.82835	21074	ITA	Italy	Southern Europe	Europe	False
787718	Negotin	44.22639	22.53083	17612	SRB	Serbia	Southern Europe	Europe	False
2753801	Hoofddorp	52.3025	4.68889	132734	NLD	Netherlands	Western Europe	Europe	False
1180942	Chūniān	30.96397	73.98029	57312	PAK	Pakistan	Southern Asia	Asia	False
1082639	Ambatondrazaka	-17.83333	48.41667	43134	MDG	Madagascar	Eastern Africa	Africa	False
3081488	Wołczyn	51.01845	18.04994	6221	POL	Poland	Eastern Europe	Europe	False
525585	Molochnoye	59.29166	39.67868	8421	RUS	Russia	Eastern Europe	Europe	False
2786578	Sint-Niklaas	51.16509	4.1437	69010	BEL	Belgium	Western Europe	Europe	False
5211411	Selinsgrove	40.79897	-76.86219	5654	USA	United States	Northern America	Americas	False
689428	Volodymyrets’	51.4213	26.14469	8537	UKR	Ukraine	Eastern Europe	Europe	False
6325529	Montmagny	46.98043	-70.55493	11724	CAN	Canada	Northern America	Americas	False
1279259	Āgra	27.18333	78.01667	1430055	IND	India	Southern Asia	Asia	False
6620444	Gerrards Cross	51.5861	-0.55543	7342	GBR	United Kingdom	Northern Europe	Europe	False
2823728	Tecklenburg	52.21957	7.81357	9552	DEU	Germany	Western Europe	Europe	False
2654660	Brixworth	52.32912	-0.9035	5277	GBR	United Kingdom	Northern Europe	Europe	False
2655524	Blackburn	53.75	-2.48333	106154	GBR	United Kingdom	Northern Europe	Europe	False
5278931	Whitewater	42.83362	-88.73233	14390	USA	United States	Northern America	Americas	False
3089033	Piła	53.15145	16.73782	75532	POL	Poland	Eastern Europe	Europe	False
2786603	Sint-Maria-Lierde	50.82172	3.84814	6449	BEL	Belgium	Western Europe	Europe	False
1803567	Linfen	36.08889	111.51889	232566	CHN	China, People's Republic of	Eastern Asia	Asia	False
2852144	Preußisch Oldendorf	52.30589	8.49341	13447	DEU	Germany	Western Europe	Europe	False
2348595	Azare	11.67478	10.19069	105687	NGA	Nigeria	Western Africa	Africa	False
492853	Sinegorskiy	48.01389	40.84468	6660	RUS	Russia	Eastern Europe	Europe	False
2164025	Hamilton	-37.74425	142.02202	10104	AUS	Australia	Australia and New Zealand	Oceania	False
1279290	Agartala	23.83605	91.27939	203264	IND	India	Southern Asia	Asia	False
5374175	Monrovia	34.14806	-117.99895	36590	USA	United States	Northern America	Americas	False
2655548	Bishopton	55.90969	-4.5056	5029	GBR	United Kingdom	Northern Europe	Europe	False
2655551	Bishops Waltham	50.95	-1.21667	6221	GBR	United Kingdom	Northern Europe	Europe	False
4784352	Sandston	37.52348	-77.31581	7571	USA	United States	Northern America	Americas	False
1738050	Miri	4.4148	114.0089	228212	MYS	Malaysia	South-Eastern Asia	Asia	False
623941	Astravyets	54.61378	25.95537	8300	BLR	Belarus	Eastern Europe	Europe	False
2655562	Bishops Stortford	51.87113	0.15868	45001	GBR	United Kingdom	Northern Europe	Europe	False
5408076	West Hollywood	34.09001	-118.36174	34399	USA	United States	Northern America	Americas	False
2130146	Hanawa	40.18361	140.78722	36925	JPN	Japan	Eastern Asia	Asia	False
2524495	Isola di Capo Rizzuto	38.95844	17.09242	11045	ITA	Italy	Southern Europe	Europe	False
558418	Groznyy	43.31195	45.68895	226100	RUS	Russia	Eastern Europe	Europe	False
5244247	Ashland	46.59244	-90.8838	8216	USA	United States	Northern America	Americas	False
3179866	Caserta	41.07262	14.33231	72844	ITA	Italy	Southern Europe	Europe	False
525659	Mokshan	53.4365	44.61322	11652	RUS	Russia	Eastern Europe	Europe	False
2655582	Bishopbriggs	55.90669	-4.21869	22668	GBR	United Kingdom	Northern Europe	Europe	False
2655583	Bishop Auckland	54.65554	-1.67706	25665	GBR	United Kingdom	Northern Europe	Europe	False
4516233	Lancaster	39.71368	-82.59933	38780	USA	United States	Northern America	Americas	False
2272144	Alcochete	38.75534	-8.96086	9705	PRT	Portugal	Southern Europe	Europe	False
361827	Ad Dilinjāt	30.82791	30.53633	40386	EGY	Egypt	Northern Africa	Africa	False
4228452	Villa Rica	33.73205	-84.91911	13956	USA	United States	Northern America	Americas	False
2835481	Schwäbisch Hall	49.11127	9.73908	36543	DEU	Germany	Western Europe	Europe	False
1672551	Lugu	23.74639	120.7525	19599	TWN	China, Republic of (Taiwan)		Asia	False
4883817	Aurora	41.76058	-88.32007	197899	USA	United States	Northern America	Americas	False
2983276	Rochefort	45.93333	-0.98333	29427	FRA	France	Western Europe	Europe	False
2688368	Norrköping	58.59419	16.1826	82903	SWE	Sweden	Northern Europe	Europe	False
2655603	Birmingham	52.48142	-1.89983	984333	GBR	United Kingdom	Northern Europe	Europe	False
918905	Chinsali	-10.54142	32.08162	14015	ZMB	Zambia	Eastern Africa	Africa	False
2852218	Prenzlau	53.31625	13.86261	20899	DEU	Germany	Western Europe	Europe	False
2655613	Birkenhead	53.39337	-3.01479	81805	GBR	United Kingdom	Northern Europe	Europe	False
5113223	Cold Spring Harbor	40.87149	-73.45679	5070	USA	United States	Northern America	Americas	False
2819465	Unterhaching	48.06598	11.61564	20852	DEU	Germany	Western Europe	Europe	False
2655627	Birchington-on-Sea	51.37575	1.3048	9827	GBR	United Kingdom	Northern Europe	Europe	False
3671437	Puerto Leguízamo	-0.19337	-74.78189	9098	COL	Colombia	South America	Americas	False
3016078	Gif-sur-Yvette	48.68333	2.13333	23541	FRA	France	Western Europe	Europe	False
787855	Mol	45.76457	20.13286	7950	SRB	Serbia	Southern Europe	Europe	False
492944	Sim	54.993	57.6982	15632	RUS	Russia	Eastern Europe	Europe	False
689558	Vinnytsya	49.23278	28.48097	352115	UKR	Ukraine	Eastern Europe	Europe	False
1148311	Asadābād	34.87311	71.14697	48400	AFG	Afghanistan	Southern Asia	Asia	False
99738	‘Afak	32.0643	45.24743	21888	IRQ	Iraq	Western Asia	Asia	False
2654447	Brynamman	51.8	-3.86667	5693	GBR	United Kingdom	Northern Europe	Europe	False
2917788	Greifswald	54.09311	13.38786	52731	DEU	Germany	Western Europe	Europe	False
1005125	Ermelo	-26.53333	29.98333	41124	ZAF	South Africa	Southern Africa	Africa	False
2917793	Greifenstein	50.61667	8.3	7507	DEU	Germany	Western Europe	Europe	False
1279396	Ābu	24.59365	72.71756	24981	IND	India	Southern Asia	Asia	False
3872326	San Carlos	-36.42477	-71.958	31517	CHL	Chile	South America	Americas	False
4720039	Port Arthur	29.88519	-93.94233	53818	USA	United States	Northern America	Americas	False
4785576	Short Pump	37.65042	-77.61249	24729	USA	United States	Northern America	Americas	False
2819497	Untergriesbach	48.57434	13.66725	6294	DEU	Germany	Western Europe	Europe	False
2655664	Billingham	54.58881	-1.29034	35708	GBR	United Kingdom	Northern Europe	Europe	False
2655666	Billinge	53.49795	-2.7081	6700	GBR	United Kingdom	Northern Europe	Europe	False
2852280	Preetz	54.2354	10.27795	15768	DEU	Germany	Western Europe	Europe	False
2392308	Ouidah	6.36307	2.08506	83503	BEN	Benin	Western Africa	Africa	False
2786746	Sint-Amands	51.05645	4.20957	7653	BEL	Belgium	Western Europe	Europe	False
3074975	Hradec nad Moravici	49.87042	17.87843	5255	CZE	Czech Republic	Eastern Europe	Europe	False
4720060	Port Isabel	26.07341	-97.20858	5006	USA	United States	Northern America	Americas	False
2867445	Murnau am Staffelsee	47.68085	11.20125	11958	DEU	Germany	Western Europe	Europe	False
2983362	Roanne	46.03333	4.06667	39840	FRA	France	Western Europe	Europe	False
4392388	Jefferson City	38.5767	-92.17352	43079	USA	United States	Northern America	Americas	False
3671497	Puerto Colombia	10.98778	-74.95472	26227	COL	Colombia	South America	Americas	False
2655690	Biggin Hill	51.31329	0.03433	13535	GBR	United Kingdom	Northern Europe	Europe	False
4155006	Fernandina Beach	30.66968	-81.46259	11487	USA	United States	Northern America	Americas	False
2753996	Hoensbroek	50.92387	5.92528	25000	NLD	Netherlands	Western Europe	Europe	False
3573197	Hamilton	32.2949	-64.78303	902	BMU	Bermuda	Northern America	Americas	False
624079	Orsha	54.5081	30.4172	125347	BLR	Belarus	Eastern Europe	Europe	False
3195128	Milići	44.17016	19.09195	8210	BIH	Bosnia and Herzegovina	Southern Europe	Europe	False
4326868	Hammond	30.50463	-90.46293	20019	USA	United States	Northern America	Americas	False
3868121	Viña del Mar	-33.02457	-71.55183	294551	CHL	Chile	South America	Americas	False
2655707	Bideford	51.01678	-4.20832	16624	GBR	United Kingdom	Northern Europe	Europe	False
4982236	Waterville	44.55201	-69.63171	15722	USA	United States	Northern America	Americas	False
2950622	Bergen	52.80837	9.96374	13609	DEU	Germany	Western Europe	Europe	False
1705440	Lubao	14.9405	120.6011	55645	PHL	Philippines	South-Eastern Asia	Asia	False
2983393	Rivesaltes	42.76945	2.87239	8836	FRA	France	Western Europe	Europe	False
2983395	Rives	45.35505	5.49927	6067	FRA	France	Western Europe	Europe	False
3114472	Pamplona	42.81687	-1.64323	198491	ESP	Spain	Southern Europe	Europe	False
5146089	Ashtabula	41.86505	-80.78981	19124	USA	United States	Northern America	Americas	False
3671531	Puerto Boyacá	5.97584	-74.58845	27310	COL	Colombia	South America	Americas	False
2524653	Gela	37.07381	14.24038	73854	ITA	Italy	Southern Europe	Europe	False
2638077	Sheffield	53.38297	-1.4659	447047	GBR	United Kingdom	Northern Europe	Europe	False
2983408	Rive-de-Gier	45.52755	4.61589	14852	FRA	France	Western Europe	Europe	False
2491889	Khenchela	35.43583	7.14333	117000	DZA	Algeria	Northern Africa	Africa	False
2229752	Kumba	4.6363	9.4469	144413	CMR	Cameroon	Middle Africa	Africa	False
4916732	Wilmette	42.07225	-87.72284	27087	USA	United States	Northern America	Americas	False
2229761	Kribi	2.93725	9.90765	55224	CMR	Cameroon	Middle Africa	Africa	False
2426370	Oum Hadjer	13.2954	19.6966	19271	TCD	Chad	Middle Africa	Africa	False
2616235	Nørresundby	57.04834	9.9352	22083	DNK	Denmark	Northern Europe	Europe	False
2786824	Seraing	50.58362	5.50115	60737	BEL	Belgium	Western Europe	Europe	False
5178892	Bala-Cynwyd	40.00761	-75.23407	9299	USA	United States	Northern America	Americas	False
3081741	Włocławek	52.64817	19.0678	120339	POL	Poland	Eastern Europe	Europe	False
2754064	Hilversum	52.22333	5.17639	83640	NLD	Netherlands	Western Europe	Europe	False
4621846	Farragut	35.88452	-84.15353	20676	USA	United States	Northern America	Americas	False
460312	Dobele	56.625	23.27861	11225	LVA	Latvia	Northern Europe	Europe	False
4195869	Fort Valley	32.55376	-83.88741	9815	USA	United States	Northern America	Americas	False
3442206	Juan L. Lacaze	-34.41888	-57.45285	13223	URY	Uruguay	South America	Americas	False
2655775	Bexley	51.44162	0.14866	228000	GBR	United Kingdom	Northern Europe	Europe	False
2659136	Prilly	46.53698	6.60456	10524	CHE	Switzerland	Western Europe	Europe	False
2655777	Bexhill-on-Sea	50.85023	0.47095	40478	GBR	United Kingdom	Northern Europe	Europe	False
3114531	Palencia	42.00955	-4.52406	82651	ESP	Spain	Southern Europe	Europe	False
4294180	Harrodsburg	37.7623	-84.84329	8340	USA	United States	Northern America	Americas	False
2655781	Bewdley	52.3757	-2.31833	9168	GBR	United Kingdom	Northern Europe	Europe	False
2655785	Beverley	53.84587	-0.42332	31968	GBR	United Kingdom	Northern Europe	Europe	False
263725	Ágios Stéfanos	38.14657	23.85608	9892	GRC	Greece	Southern Europe	Europe	False
4997384	Jackson	42.24587	-84.40135	33534	USA	United States	Northern America	Americas	False
2262581	Torres Vedras	39.09109	-9.2586	24443	PRT	Portugal	Southern Europe	Europe	False
5323163	Aliso Viejo	33.56504	-117.72712	47823	USA	United States	Northern America	Americas	False
3442236	Joaquín Suárez	-34.73501	-56.0347	6257	URY	Uruguay	South America	Americas	False
2983489	Riom	45.9	3.11667	20142	FRA	France	Western Europe	Europe	False
5113412	Commack	40.84288	-73.29289	36124	USA	United States	Northern America	Americas	False
3114567	Palafrugell	41.91738	3.1631	22365	ESP	Spain	Southern Europe	Europe	False
2130188	Hakodate	41.77583	140.73667	275730	JPN	Japan	Eastern Asia	Asia	False
2655819	Berwick-Upon-Tweed	55.78333	-2.0	26000	GBR	United Kingdom	Northern Europe	Europe	False
1508943	Borodino	55.9061	94.9079	19602	RUS	Russia	Eastern Europe	Europe	False
230993	Kisoro	-1.28538	29.68497	12400	UGA	Uganda	Eastern Africa	Africa	False
3081818	Witnica	52.67318	14.89765	6821	POL	Poland	Eastern Europe	Europe	False
2654480	Broxburn	55.93415	-3.47133	13288	GBR	United Kingdom	Northern Europe	Europe	False
3016292	Gentilly	48.81294	2.3417	15939	FRA	France	Western Europe	Europe	False
5133926	Riverhead	40.91704	-72.66204	13299	USA	United States	Northern America	Americas	False
2852458	Potsdam	52.39886	13.06566	145292	DEU	Germany	Western Europe	Europe	False
5101159	Middlesex	40.5726	-74.49265	13635	USA	United States	Northern America	Americas	False
758390	Starachowice	51.0374	21.07126	53739	POL	Poland	Eastern Europe	Europe	False
2983536	Rillieux-la-Pape	45.81667	4.9	28076	FRA	France	Western Europe	Europe	False
2655858	Berkhamsted	51.7604	-0.56528	16243	GBR	United Kingdom	Northern Europe	Europe	False
2262644	Tomar	39.60199	-8.40924	19168	PRT	Portugal	Southern Europe	Europe	False
2885237	Köthen	51.75185	11.97093	28710	DEU	Germany	Western Europe	Europe	False
3769976	Puerto Gaitán	4.31328	-72.08157	5928	COL	Colombia	South America	Americas	False
5146233	Aurora	41.31755	-81.34539	15548	USA	United States	Northern America	Americas	False
3376762	New Amsterdam	6.24793	-57.5171	35039	GUY	Guyana	South America	Americas	False
460413	Daugavpils	55.88333	26.53333	111564	LVA	Latvia	Northern Europe	Europe	False
4130430	Searcy	35.25064	-91.73625	22858	USA	United States	Northern America	Americas	False
3016321	Gennevilliers	48.93333	2.3	42294	FRA	France	Western Europe	Europe	False
755330	Wola	52.2401	20.98869	143996	POL	Poland	Eastern Europe	Europe	False
2037355	Fushun	41.85583	123.92333	1400646	CHN	China, People's Republic of	Eastern Asia	Asia	False
5113481	Coney Island	40.57788	-73.99403	60000	USA	United States	Northern America	Americas	False
459031	Kandava	57.04087	22.77466	3592	LVA	Latvia	Northern Europe	Europe	False
3016332	Genlis	47.24203	5.22415	5453	FRA	France	Western Europe	Europe	False
2881885	Lahr	48.34042	7.86886	43863	DEU	Germany	Western Europe	Europe	False
2655886	Benson	51.62073	-1.10979	5691	GBR	United Kingdom	Northern Europe	Europe	False
263824	Ágios Nikólaos	35.19106	25.71524	11421	GRC	Greece	Southern Europe	Europe	False
5801617	Longview	46.13817	-122.93817	36648	USA	United States	Northern America	Americas	False
3081874	Wisła	49.65629	18.8591	11379	POL	Poland	Eastern Europe	Europe	False
2524819	Enna	37.5655	14.27433	22998	ITA	Italy	Southern Europe	Europe	False
4884116	Barrington	42.15391	-88.13619	10327	USA	United States	Northern America	Americas	False
2033301	Youhao	47.85306	128.83565	78402	CHN	China, People's Republic of	Eastern Asia	Asia	False
4589207	Newberry	34.27458	-81.61872	10277	USA	United States	Northern America	Americas	False
3025860	Chauny	49.61514	3.21857	13176	FRA	France	Western Europe	Europe	False
4916891	Winnetka	42.10808	-87.7359	12187	USA	United States	Northern America	Americas	False
2131612	Goshogawara	40.80444	140.44139	49110	JPN	Japan	Eastern Asia	Asia	False
3861445	Chilecito	-29.16195	-67.4974	42248	ARG	Argentina	South America	Americas	False
2852512	Pößneck	50.69358	11.59229	13624	DEU	Germany	Western Europe	Europe	False
3024669	Cléon	49.31235	1.0295	6164	FRA	France	Western Europe	Europe	False
1790601	Xiangcheng Chengguanzhen	33.84703	113.4778	65833	CHN	China, People's Republic of	Eastern Asia	Asia	False
5008327	Saint Joseph	42.10976	-86.48002	8365	USA	United States	Northern America	Americas	False
263854	Áyios Konstandínos	38.63337	21.3995	6534	GRC	Greece	Southern Europe	Europe	False
493231	Shuya	56.84865	41.38833	60705	RUS	Russia	Eastern Europe	Europe	False
3180208	Casale Monferrato	45.13338	8.4525	31275	ITA	Italy	Southern Europe	Europe	False
4467657	Garner	35.71126	-78.61417	25745	USA	United States	Northern America	Americas	False
2655929	Belvedere	51.49114	0.15136	11000	GBR	United Kingdom	Northern Europe	Europe	False
3540667	Sancti Spíritus	21.92972	-79.4425	127069	CUB	Cuba	Caribbean	Americas	False
2953410	Bad Lauterberg im Harz	51.63272	10.47031	11784	DEU	Germany	Western Europe	Europe	False
3180224	Casalecchio di Reno	44.47563	11.27495	33789	ITA	Italy	Southern Europe	Europe	False
2981629	Saint-Arnoult-en-Yvelines	48.57111	1.9395	5698	FRA	France	Western Europe	Europe	False
2524869	Cutro	39.03484	16.98658	7977	ITA	Italy	Southern Europe	Europe	False
2164422	Griffith	-34.28853	146.05093	15455	AUS	Australia	Australia and New Zealand	Oceania	False
3147465	Lillestrøm	59.95597	11.04918	14000	NOR	Norway	Northern Europe	Europe	False
2659959	Le Mont-sur-Lausanne	46.55815	6.63145	5270	CHE	Switzerland	Western Europe	Europe	False
2623181	Christianshavn	55.67383	12.59541	10140	DNK	Denmark	Northern Europe	Europe	False
2655952	Bellshill	55.81667	-4.01667	20201	GBR	United Kingdom	Northern Europe	Europe	False
2524881	Crotone	39.08077	17.12764	48704	ITA	Italy	Southern Europe	Europe	False
3147474	Lillehammer	61.11514	10.46628	19096	NOR	Norway	Northern Europe	Europe	False
2623188	Charlottenlund	55.75367	12.59181	40000	DNK	Denmark	Northern Europe	Europe	False
3009486	La Ferté-Macé	48.58999	-0.358	7372	FRA	France	Western Europe	Europe	False
3081942	Wilkowice	49.76282	19.08973	6496	POL	Poland	Eastern Europe	Europe	False
3114711	Oviedo	43.36029	-5.84476	224005	ESP	Spain	Southern Europe	Europe	False
1518543	Taldyqorghan	45.0	77.91667	200000	KAZ	Kazakhstan	Central Asia	Asia	False
3671772	Pradera	3.42111	-76.24472	44630	COL	Colombia	South America	Americas	False
5244638	Baraboo	43.47109	-89.74429	12048	USA	United States	Northern America	Americas	False
2950881	Berchtesgaden	47.63236	13.00187	7655	DEU	Germany	Western Europe	Europe	False
1279715	Rikaze	29.25	88.88333	80000	CHN	China, People's Republic of	Eastern Asia	Asia	False
2524901	Cotronei	39.15935	16.77688	5121	ITA	Italy	Southern Europe	Europe	False
5965546	Gravenhurst	44.91681	-79.36633	5839	CAN	Canada	Northern America	Americas	False
2524907	Cosenza	39.2989	16.25307	63852	ITA	Italy	Southern Europe	Europe	False
100077	Abū Ghurayb	33.30563	44.18477	900000	IRQ	Iraq	Western Asia	Asia	False
2655984	Belfast	54.59682	-5.92541	274770	GBR	United Kingdom	Northern Europe	Europe	False
2624502	Assens	55.27023	9.90081	6053	DNK	Denmark	Northern Europe	Europe	False
551891	Kasimov	54.94111	41.39528	35355	RUS	Russia	Eastern Europe	Europe	False
2757345	Delft	52.00667	4.35556	95060	NLD	Netherlands	Western Europe	Europe	False
1214204	Pematangsiantar	2.9595	99.0687	209614	IDN	Indonesia	South-Eastern Asia	Asia	False
6690869	Chadwell Heath	51.57121	0.13271	9598	GBR	United Kingdom	Northern Europe	Europe	False
2524929	Corigliano Calabro	39.59553	16.51907	5402	ITA	Italy	Southern Europe	Europe	False
3440939	Punta del Este	-34.94747	-54.93382	7234	URY	Uruguay	South America	Americas	False
2946111	Bornheim	50.76313	6.99089	48523	DEU	Germany	Western Europe	Europe	False
4254679	Bloomington	39.16533	-86.52639	80405	USA	United States	Northern America	Americas	False
263312	Dhafní	37.95002	23.73437	22913	GRC	Greece	Southern Europe	Europe	False
591632	Kärdla	58.99778	22.74917	3763	EST	Estonia	Northern Europe	Europe	False
1771287	Kampung Baharu Nilai	2.8033	101.7972	36720	MYS	Malaysia	South-Eastern Asia	Asia	False
460568	Cesvaine	56.96667	26.31667	1811	LVA	Latvia	Northern Europe	Europe	False
2949423	Biberach an der Riß	48.09345	9.79053	32333	DEU	Germany	Western Europe	Europe	False
3114780	Outeiro de Rei	43.10198	-7.61497	5001	ESP	Spain	Southern Europe	Europe	False
2649052	Frimley	51.31667	-0.74544	12739	GBR	United Kingdom	Northern Europe	Europe	False
4724359	Rusk	31.79601	-95.15022	5551	USA	United States	Northern America	Americas	False
2656046	Bedford	52.13459	-0.46632	86658	GBR	United Kingdom	Northern Europe	Europe	False
5572400	Susanville	40.41628	-120.65301	17947	USA	United States	Northern America	Americas	False
2524979	Cirò Marina	39.36876	17.12477	14840	ITA	Italy	Southern Europe	Europe	False
5475352	Las Cruces	32.31232	-106.77834	97618	USA	United States	Northern America	Americas	False
2659977	Le Châtelard	46.44527	6.89908	23192	CHE	Switzerland	Western Europe	Europe	False
4987617	Cadillac	44.25195	-85.40116	10355	USA	United States	Northern America	Americas	False
2393917	Guilmaro	10.56583	1.72444	6516	BEN	Benin	Western Africa	Africa	False
4392768	Joplin	37.08423	-94.51328	50150	USA	United States	Northern America	Americas	False
2656065	Beckenham	51.40878	-0.02526	82000	GBR	United Kingdom	Northern Europe	Europe	False
2656067	Beccles	52.45936	1.56465	13205	GBR	United Kingdom	Northern Europe	Europe	False
1802550	Longgang	37.65181	120.33063	60444	CHN	China, People's Republic of	Eastern Asia	Asia	False
2656070	Bebington	53.35	-3.01667	15768	GBR	United Kingdom	Northern Europe	Europe	False
132938	Gonbad-e Kāvūs	37.25004	55.16721	131416	IRN	Iran	Southern Asia	Asia	False
198476	Embu	-0.53112	37.45061	34922	KEN	Kenya	Eastern Africa	Africa	False
1021360	Ballitoville	-29.53897	31.21439	17218	ZAF	South Africa	Southern Africa	Africa	False
2656086	Bearsden	55.91536	-4.33279	27839	GBR	United Kingdom	Northern Europe	Europe	False
360761	Al Manşūrah	31.03637	31.38069	420195	EGY	Egypt	Northern Africa	Africa	False
2754394	Hengelo	52.26583	6.79306	80809	NLD	Netherlands	Western Europe	Europe	False
2754395	Hengelo	52.05083	6.30972	8500	NLD	Netherlands	Western Europe	Europe	False
4294494	Henderson	37.83615	-87.59001	28757	USA	United States	Northern America	Americas	False
2763749	Thalgau	47.83333	13.25	5501	AUT	Austria	Western Europe	Europe	False
677520	Geoagiu	45.91667	23.2	5919	ROU	Romania	Eastern Europe	Europe	False
4163428	Marianna	30.77436	-85.22687	6102	USA	United States	Northern America	Americas	False
6948711	Scarborough	43.77223	-79.25666	600000	CAN	Canada	Northern America	Americas	False
3058663	Modra	48.33397	17.30711	8536	SVK	Slovakia	Eastern Europe	Europe	False
1607532	Phra Nakhon Si Ayutthaya	14.35167	100.57739	81962	THA	Thailand	South-Eastern Asia	Asia	False
4032369	Pangai	-19.81468	-174.35423	1738	TON	Tonga	Polynesia	Oceania	False
3114866	Ortuella	43.31113	-3.05617	8556	ESP	Spain	Southern Europe	Europe	False
3129135	Avilés	43.55473	-5.92483	84242	ESP	Spain	Southern Europe	Europe	False
690038	Velyka Mykhaylivka	47.07971	29.85753	5777	UKR	Ukraine	Eastern Europe	Europe	False
2656120	Beaconsfield	51.61219	-0.64732	12566	GBR	United Kingdom	Northern Europe	Europe	False
293783	Ramat HaSharon	32.14613	34.8394	36137	ISR	Israel	Western Asia	Asia	False
5146491	Barberton	41.01283	-81.60512	26550	USA	United States	Northern America	Americas	False
2983806	Revin	49.94039	4.63503	7960	FRA	France	Western Europe	Europe	False
2262912	Sintra	38.80097	-9.37826	26193	PRT	Portugal	Southern Europe	Europe	False
1804162	Lengshuitan	26.4111	111.59559	88935	CHN	China, People's Republic of	Eastern Asia	Asia	False
2525059	Catanzaro	38.88247	16.60086	78970	ITA	Italy	Southern Europe	Europe	False
2262917	Sines	37.95622	-8.86979	12791	PRT	Portugal	Southern Europe	Europe	False
3180423	Carrara	44.07926	10.09789	58666	ITA	Italy	Southern Europe	Europe	False
3442568	Fray Bentos	-33.12194	-58.30306	23279	URY	Uruguay	South America	Americas	False
5506956	Las Vegas	36.17497	-115.13722	583756	USA	United States	Northern America	Americas	False
2262926	Silves	37.18921	-8.43822	10917	PRT	Portugal	Southern Europe	Europe	False
2754447	Helmond	51.48167	5.66111	74740	NLD	Netherlands	Western Europe	Europe	False
4032402	Nuku‘alofa	-21.13938	-175.2018	22400	TON	Tonga	Polynesia	Oceania	False
4866371	Marshalltown	42.04943	-92.90798	27552	USA	United States	Northern America	Americas	False
3540885	San Antonio de los Baños	22.89018	-82.50099	42724	CUB	Cuba	Caribbean	Americas	False
3049366	Kőszeg	47.38922	16.541	11500	HUN	Hungary	Eastern Europe	Europe	False
2983833	Revel	43.45812	2.00469	8710	FRA	France	Western Europe	Europe	False
2525083	Castelvetrano	37.68081	12.79194	28072	ITA	Italy	Southern Europe	Europe	False
3180445	Carpi Centro	44.78237	10.8777	53024	ITA	Italy	Southern Europe	Europe	False
5113760	Corning	42.14285	-77.05469	11183	USA	United States	Northern America	Americas	False
2656161	Battle	50.91732	0.48417	6171	GBR	United Kingdom	Northern Europe	Europe	False
4032420	Neiafu	-18.6506	-173.98404	4320	TON	Tonga	Polynesia	Oceania	False
2033574	Zhangjiakou Shi Xuanhua Qu	40.61028	115.04472	373422	CHN	China, People's Republic of	Eastern Asia	Asia	False
4360103	La Plata	38.52929	-76.97525	8753	USA	United States	Northern America	Americas	False
2656168	Batley	53.70291	-1.6337	50807	GBR	United Kingdom	Northern Europe	Europe	False
2656169	Bathgate	55.90204	-3.64398	15337	GBR	United Kingdom	Northern Europe	Europe	False
5803786	Monroe	47.85538	-121.97096	17304	USA	United States	Northern America	Americas	False
4491180	Shelby	35.29235	-81.53565	20323	USA	United States	Northern America	Americas	False
2656173	Bath	51.3751	-2.36172	93238	GBR	United Kingdom	Northern Europe	Europe	False
2525103	Castelbuono	37.9253	14.08665	7458	ITA	Italy	Southern Europe	Europe	False
1804208	Leiyang	26.40238	112.85908	129116	CHN	China, People's Republic of	Eastern Asia	Asia	False
2918321	Gräfenhainichen	51.72892	12.45651	7833	DEU	Germany	Western Europe	Europe	False
3147698	Levanger	63.74644	11.29963	8411	NOR	Norway	Northern Europe	Europe	False
2262963	Setúbal	38.5244	-8.8882	117110	PRT	Portugal	Southern Europe	Europe	False
1017780	Boksburg	-26.21197	28.25958	445168	ZAF	South Africa	Southern Africa	Africa	False
985015	Ladybrand	-29.19448	27.45739	17228	ZAF	South Africa	Southern Africa	Africa	False
4156404	Gainesville	29.65163	-82.32483	124354	USA	United States	Northern America	Americas	False
559034	Grayvoron	50.4767	35.6773	6212	RUS	Russia	Eastern Europe	Europe	False
5772959	Clearfield	41.11078	-112.02605	30112	USA	United States	Northern America	Americas	False
5113790	Cortland	42.60118	-76.18048	19204	USA	United States	Northern America	Americas	False
2656192	Basingstoke	51.26249	-1.08708	96348	GBR	United Kingdom	Northern Europe	Europe	False
2656194	Basildon	51.56844	0.45782	101362	GBR	United Kingdom	Northern Europe	Europe	False
5343171	Dinuba	36.54328	-119.38707	21453	USA	United States	Northern America	Americas	False
1181636	Chakwāl	32.93338	72.85853	101200	PAK	Pakistan	Southern Asia	Asia	False
3573703	Scarborough	11.18333	-60.73333	17000	TTO	Trinidad and Tobago	Caribbean	Americas	False
5507016	Laughlin	35.16778	-114.57302	7323	USA	United States	Northern America	Americas	False
4360138	Lake Arbor	38.90789	-76.82969	9776	USA	United States	Northern America	Americas	False
2262987	Sertã	39.80846	-8.09883	5636	PRT	Portugal	Southern Europe	Europe	False
4440397	Pascagoula	30.36576	-88.55613	22392	USA	United States	Northern America	Americas	False
3645532	Ciudad Bolívar	8.12923	-63.54086	338000	VEN	Venezuela	South America	Americas	False
3868626	Valparaíso	-33.03932	-71.62725	282448	CHL	Chile	South America	Americas	False
2983891	Rethel	49.51667	4.36667	8505	FRA	France	Western Europe	Europe	False
3082197	Wieluń	51.22097	18.56964	24384	POL	Poland	Eastern Europe	Europe	False
3049430	Körmend	47.01096	16.60596	12368	HUN	Hungary	Eastern Europe	Europe	False
8521688	Blécherette	46.53932	6.62227	6516	CHE	Switzerland	Western Europe	Europe	False
3835869	Santiago del Estero	-27.79511	-64.26149	354692	ARG	Argentina	South America	Americas	False
3180511	Carignano	44.90599	7.67253	7322	ITA	Italy	Southern Europe	Europe	False
3016675	Garches	48.84226	2.18232	18930	FRA	France	Western Europe	Europe	False
3573732	Sangre Grande	10.58333	-61.11667	15968	TTO	Trinidad and Tobago	Caribbean	Americas	False
198629	Eldoret	0.52036	35.26993	218446	KEN	Kenya	Eastern Africa	Africa	False
3573738	San Fernando	10.28333	-61.46667	55419	TTO	Trinidad and Tobago	Caribbean	Americas	False
886763	Masvingo	-20.06373	30.82766	76290	ZWE	Zimbabwe	Eastern Africa	Africa	False
198636	Eldama Ravine	0.05158	35.73078	12524	KEN	Kenya	Eastern Africa	Africa	False
5205849	Phoenixville	40.13038	-75.51491	16440	USA	United States	Northern America	Americas	False
2656241	Barrow in Furness	54.11094	-3.22758	47264	GBR	United Kingdom	Northern Europe	Europe	False
2787315	Saint-Vith	50.28146	6.12724	9135	BEL	Belgium	Western Europe	Europe	False
362485	Abū Kabīr	30.72508	31.67148	100684	EGY	Egypt	Northern Africa	Africa	False
788470	Llazicë	42.55528	20.76333	19863	RKS	Kosovo		Asia	False
2820087	Unna	51.53795	7.68969	66734	DEU	Germany	Western Europe	Europe	False
5454627	Alamogordo	32.89953	-105.96027	30403	USA	United States	Northern America	Americas	False
3016702	Gap	44.56667	6.08333	42715	FRA	France	Western Europe	Europe	False
2852863	Poll	50.91256	6.99057	11311	DEU	Germany	Western Europe	Europe	False
1687894	Santa Rosa	14.31222	121.11139	216650	PHL	Philippines	South-Eastern Asia	Asia	False
3016711	Gannat	46.10015	3.19886	6096	FRA	France	Western Europe	Europe	False
2263049	Serpa	37.94581	-7.59754	6586	PRT	Portugal	Southern Europe	Europe	False
2982231	Ruelle-sur-Touvre	45.68333	0.23333	7597	FRA	France	Western Europe	Europe	False
2230285	Bankim	6.08303	11.4905	5727	CMR	Cameroon	Middle Africa	Africa	False
755726	Wilanów	52.16311	21.08748	14032	POL	Poland	Eastern Europe	Europe	False
2305027	Akropong	5.97462	-0.08542	11096	GHA	Ghana	Western Africa	Africa	False
766042	Łomianki	52.33413	20.88602	15315	POL	Poland	Eastern Europe	Europe	False
2656277	Barnt Green	52.35902	-2.00715	5366	GBR	United Kingdom	Northern Europe	Europe	False
4589590	Oak Grove	33.77821	-80.96676	8183	USA	United States	Northern America	Americas	False
8129098	Arbizzano-Santa Maria	45.49489	10.93831	5148	ITA	Italy	Southern Europe	Europe	False
2885656	Köpenick	52.4455	13.57455	60128	DEU	Germany	Western Europe	Europe	False
2656281	Barnstaple	51.08022	-4.05808	32532	GBR	United Kingdom	Northern Europe	Europe	False
3344411	Jablanica	43.66028	17.76167	6209	BIH	Bosnia and Herzegovina	Southern Europe	Europe	False
2656284	Barnsley	53.55	-1.48333	71447	GBR	United Kingdom	Northern Europe	Europe	False
4620634	Elizabethton	36.34872	-82.21069	14176	USA	United States	Northern America	Americas	False
591902	Jõgeva	58.74667	26.39389	6396	EST	Estonia	Northern Europe	Europe	False
2656287	Barnoldswick	53.91711	-2.18705	11101	GBR	United Kingdom	Northern Europe	Europe	False
2295840	Prestea	5.43274	-2.14284	35155	GHA	Ghana	Western Africa	Africa	False
2164771	Grafton	-29.68104	152.93394	9955	AUS	Australia	Australia and New Zealand	Oceania	False
3180580	Caravaggio	45.49627	9.64165	13340	ITA	Italy	Southern Europe	Europe	False
2656295	Barnet	51.65	-0.2	30000	GBR	United Kingdom	Northern Europe	Europe	False
2885672	Konz	49.70045	6.57652	17879	DEU	Germany	Western Europe	Europe	False
2852909	Polch	50.29973	7.31315	6590	DEU	Germany	Western Europe	Europe	False
3147822	Leirvik	59.77977	5.50051	11028	NOR	Norway	Northern Europe	Europe	False
2885679	Konstanz	47.66033	9.17582	81275	DEU	Germany	Western Europe	Europe	False
3115056	Ondarroa	43.31667	-2.41667	9546	ESP	Spain	Southern Europe	Europe	False
4950065	Salem	42.51954	-70.89672	41340	USA	United States	Northern America	Americas	False
4851762	Clarinda	40.73981	-95.038	5572	USA	United States	Northern America	Americas	False
5146675	Bay Village	41.48477	-81.92208	15651	USA	United States	Northern America	Americas	False
2983990	Rennes	48.11198	-1.67429	209375	FRA	France	Western Europe	Europe	False
3115063	Oñati	43.03262	-2.40997	10896	ESP	Spain	Southern Europe	Europe	False
1214520	Medan	3.58333	98.66667	1750971	IDN	Indonesia	South-Eastern Asia	Asia	False
3180601	Capua	41.10519	14.21269	15438	ITA	Italy	Southern Europe	Europe	False
2754618	Heeze	51.3828	5.57145	9550	NLD	Netherlands	Western Europe	Europe	False
624700	Nyasvizh	53.2189	26.6779	12847	BLR	Belarus	Eastern Europe	Europe	False
3442750	Dolores	-33.53009	-58.21701	15880	URY	Uruguay	South America	Americas	False
5802049	Lynnwood	47.82093	-122.31513	35836	USA	United States	Northern America	Americas	False
3445859	Ubá	-21.12	-42.94278	97828	BRA	Brazil	South America	Americas	False
2758326	Brielle	51.90167	4.1625	9000	NLD	Netherlands	Western Europe	Europe	False
5769288	Spearfish	44.49082	-103.85937	10494	USA	United States	Northern America	Americas	False
2656333	Barking	51.53333	0.08333	61000	GBR	United Kingdom	Northern Europe	Europe	False
2787407	Saint-Hubert	50.02668	5.37401	5538	BEL	Belgium	Western Europe	Europe	False
3573840	Rio Claro	10.3	-61.18333	35650	TTO	Trinidad and Tobago	Caribbean	Americas	False
3180626	Capriate San Gervasio	45.61281	9.52974	7714	ITA	Italy	Southern Europe	Europe	False
6948947	Groenswaard	52.05154	4.64541	5160	NLD	Netherlands	Western Europe	Europe	False
2885716	Könnern	51.6712	11.77068	5339	DEU	Germany	Western Europe	Europe	False
3115093	Olot	42.18096	2.49012	33524	ESP	Spain	Southern Europe	Europe	False
5179478	Beaver Falls	40.75201	-80.31923	8987	USA	United States	Northern America	Americas	False
2787416	Saint-Ghislain	50.44816	3.81886	22500	BEL	Belgium	Western Europe	Europe	False
3835994	Santa Rosa	-36.61667	-64.28333	111424	ARG	Argentina	South America	Americas	False
2754652	Heerlen	50.88365	5.98154	93084	NLD	Netherlands	Western Europe	Europe	False
5376095	Napa	38.29714	-122.28553	76915	USA	United States	Northern America	Americas	False
2754659	Heerhugowaard	52.67144	4.84862	47580	NLD	Netherlands	Western Europe	Europe	False
2885732	Königs Wusterhausen	52.30141	13.633	32513	DEU	Germany	Western Europe	Europe	False
2164837	Goulburn	-34.75155	149.72086	20940	AUS	Australia	Australia and New Zealand	Oceania	False
2033766	Xingcheng	40.61667	120.71667	98968	CHN	China, People's Republic of	Eastern Asia	Asia	False
3016807	Gaillon	49.16104	1.34016	6818	FRA	France	Western Europe	Europe	False
2658240	Unterseen	46.6853	7.84722	5150	CHE	Switzerland	Western Europe	Europe	False
6324583	Aso	32.93726	131.08008	27978	JPN	Japan	Eastern Asia	Asia	False
2328684	Nsukka	6.85783	7.39577	111017	NGA	Nigeria	Western Africa	Africa	False
2754669	Heerenveen	52.95929	5.91854	43094	NLD	Netherlands	Western Europe	Europe	False
4917358	Zion	42.44613	-87.83285	24413	USA	United States	Northern America	Americas	False
3377263	Mahdia	5.26667	-59.15	4200	GUY	Guyana	South America	Americas	False
2867560	Münsingen	48.41126	9.49704	14479	DEU	Germany	Western Europe	Europe	False
2984050	Remiremont	48.01754	6.5882	9339	FRA	France	Western Europe	Europe	False
4382837	Creve Coeur	38.66089	-90.42262	17833	USA	United States	Northern America	Americas	False
2643646	Longridge	53.83212	-2.59964	7658	GBR	United Kingdom	Northern Europe	Europe	False
264310	Avlónas	38.25149	23.69554	5744	GRC	Greece	Southern Europe	Europe	False
8063096	Earlsfield	51.4439	-0.1854	15562	GBR	United Kingdom	Northern Europe	Europe	False
2754681	Heerde	52.38723	6.04016	18428	NLD	Netherlands	Western Europe	Europe	False
2656379	Banstead	51.32233	-0.20685	46280	GBR	United Kingdom	Northern Europe	Europe	False
231550	Kiboga	0.91611	31.77417	14512	UGA	Uganda	Eastern Africa	Africa	False
1279017	Alīgarh	27.88145	78.07464	753207	IND	India	Southern Asia	Asia	False
2885760	Königstein im Taunus	50.17943	8.47132	15661	DEU	Germany	Western Europe	Europe	False
297090	Didim	37.38496	27.25643	26000	TUR	Turkey	Western Asia	Asia	False
5095787	Bloomingdale	40.4976	-74.64738	7714	USA	United States	Northern America	Americas	False
2754692	Heemstede	52.34992	4.62301	25562	NLD	Netherlands	Western Europe	Europe	False
690312	Vatutine	49.01502	31.06211	19407	UKR	Ukraine	Eastern Europe	Europe	False
2754697	Heemskerk	52.51108	4.67165	36170	NLD	Netherlands	Western Europe	Europe	False
3573899	Point Fortin	10.18333	-61.68333	19056	TTO	Trinidad and Tobago	Caribbean	Americas	False
2656396	Bangor	54.65338	-5.66895	60385	GBR	United Kingdom	Northern Europe	Europe	False
2656397	Bangor	53.22752	-4.12936	15449	GBR	United Kingdom	Northern Europe	Europe	False
624784	Navapolatsk	55.5318	28.5987	100885	BLR	Belarus	Eastern Europe	Europe	False
2656405	Banchory	57.05168	-2.48824	5978	GBR	United Kingdom	Northern Europe	Europe	False
2656406	Banbury	52.0632	-1.34222	46075	GBR	United Kingdom	Northern Europe	Europe	False
2656407	Banbridge	54.35	-6.28333	16173	GBR	United Kingdom	Northern Europe	Europe	False
2802031	Beveren	51.21187	4.25633	45179	BEL	Belgium	Western Europe	Europe	False
690335	Vasyshcheve	49.82852	36.32691	5862	UKR	Ukraine	Eastern Europe	Europe	False
2820256	Ulm	48.39841	9.99155	120451	DEU	Germany	Western Europe	Europe	False
1804451	Lianyuan	27.68833	111.66417	66501	CHN	China, People's Republic of	Eastern Asia	Asia	False
2525350	Carini	38.1324	13.18274	35082	ITA	Italy	Southern Europe	Europe	False
2525352	Cariati	39.49627	16.95495	8255	ITA	Italy	Southern Europe	Europe	False
2821736	Tostedt	53.28333	9.71667	13315	DEU	Germany	Western Europe	Europe	False
3573935	Petit Valley	10.7	-61.53333	8140	TTO	Trinidad and Tobago	Caribbean	Americas	False
755889	Wieliczka	49.98738	20.06473	18677	POL	Poland	Eastern Europe	Europe	False
2984114	Reims	49.25	4.03333	196565	FRA	France	Western Europe	Europe	False
264371	Athens	37.97945	23.71622	664046	GRC	Greece	Southern Europe	Europe	False
2780190	Eisenstadt	47.84565	16.52327	12190	AUT	Austria	Western Europe	Europe	False
4262072	New Castle	39.92894	-85.37025	18114	USA	United States	Northern America	Americas	False
2539134	Oulad Teïma	30.39467	-9.20897	66832	MAR	Morocco	Northern Africa	Africa	False
3672255	Pijao	4.33419	-75.70348	5668	COL	Colombia	South America	Americas	False
3016903	Fumel	44.49862	0.96506	5816	FRA	France	Western Europe	Europe	False
5376200	National City	32.67811	-117.0992	58582	USA	United States	Northern America	Americas	False
2853065	Pocking	48.40149	13.31315	14646	DEU	Germany	Western Europe	Europe	False
2853066	Pöcking	47.96667	11.3	5734	DEU	Germany	Western Europe	Europe	False
1706188	Lingayen	16.02182	120.23194	56580	PHL	Philippines	South-Eastern Asia	Asia	False
3573965	Peñal	10.16667	-61.46667	12281	TTO	Trinidad and Tobago	Caribbean	Americas	False
2701713	Karlskrona	56.16156	15.58661	32309	SWE	Sweden	Northern Europe	Europe	False
3180758	Cantù	45.74096	9.13084	37273	ITA	Italy	Southern Europe	Europe	False
5374232	Montclair	34.07751	-117.68978	36664	USA	United States	Northern America	Americas	False
2787547	Ruiselede	51.04039	3.39416	5129	BEL	Belgium	Western Europe	Europe	False
526558	Millerovo	48.92265	40.39673	38527	RUS	Russia	Eastern Europe	Europe	False
4851935	Clear Lake	43.13802	-93.37937	7777	USA	United States	Northern America	Americas	False
683123	Buzău	45.15	26.83333	130954	ROU	Romania	Eastern Europe	Europe	False
788709	Leskovac	42.99806	21.94611	94758	SRB	Serbia	Southern Europe	Europe	False
2918632	Göttingen	51.53443	9.93228	122149	DEU	Germany	Western Europe	Europe	False
2656490	Ballymena	54.86357	-6.27628	28932	GBR	United Kingdom	Northern Europe	Europe	False
2328811	Nkpor	6.15038	6.83042	103733	NGA	Nigeria	Western Africa	Africa	False
5330642	Brentwood	37.93187	-121.69579	51481	USA	United States	Northern America	Americas	False
98685	Ar Rumaythah	31.52845	45.20377	47248	IRQ	Iraq	Western Asia	Asia	False
2427123	N'Djamena	12.10672	15.0444	721081	TCD	Chad	Middle Africa	Africa	False
3180789	Olgiate Molgora	45.73028	9.40335	6311	ITA	Italy	Southern Europe	Europe	False
3180792	Canosa di Puglia	41.21954	16.06768	30046	ITA	Italy	Southern Europe	Europe	False
624889	Mstsislaw	54.0185	31.7217	11500	BLR	Belarus	Eastern Europe	Europe	False
723195	Vranov nad Topľou	48.88836	21.68479	23246	SVK	Slovakia	Eastern Europe	Europe	False
1804540	Langfang	39.50972	116.69472	720119	CHN	China, People's Republic of	Eastern Asia	Asia	False
4442067	Pontotoc	34.24788	-88.99867	5625	USA	United States	Northern America	Americas	False
2984192	Redon	47.65	-2.08333	9472	FRA	France	Western Europe	Europe	False
4393217	Kansas City	39.09973	-94.57857	459787	USA	United States	Northern America	Americas	False
5802247	Manchester	47.55593	-122.54486	5413	USA	United States	Northern America	Americas	False
2525450	Caltagirone	37.23785	14.51551	35371	ITA	Italy	Southern Europe	Europe	False
2656528	Ballyclare	54.76667	-6.01667	9472	GBR	United Kingdom	Northern Europe	Europe	False
2656531	Ballycastle	55.20444	-6.24298	5566	GBR	United Kingdom	Northern Europe	Europe	False
2885908	Königsbrunn	48.27506	10.89178	27494	DEU	Germany	Western Europe	Europe	False
2754837	Harenkarspel	52.73416	4.77682	15941	NLD	Netherlands	Western Europe	Europe	False
2654596	Bromborough	53.3485	-2.97935	14850	GBR	United Kingdom	Northern Europe	Europe	False
2780207	Eisenerz	47.53333	14.88333	5987	AUT	Austria	Western Europe	Europe	False
704901	Korosten’	50.95937	28.63855	65000	UKR	Ukraine	Eastern Europe	Europe	False
2754848	Harderwijk	52.34167	5.62083	40516	NLD	Netherlands	Western Europe	Europe	False
2525473	Cagliari	39.23054	9.11917	149257	ITA	Italy	Southern Europe	Europe	False
788771	Lazarevac	44.38534	20.2557	23551	SRB	Serbia	Southern Europe	Europe	False
2853162	Plön	54.16241	10.42333	13068	DEU	Germany	Western Europe	Europe	False
3180844	Caneva	45.97078	12.45261	6224	ITA	Italy	Southern Europe	Europe	False
1607983	Pathum Thani	14.01346	100.53049	24547	THA	Thailand	South-Eastern Asia	Asia	False
2754864	Hurdegaryp	53.21333	5.94137	5026	NLD	Netherlands	Western Europe	Europe	False
3180850	Canelli	44.72084	8.29282	8805	ITA	Italy	Southern Europe	Europe	False
4557109	Chambersburg	39.93759	-77.6611	20268	USA	United States	Northern America	Americas	False
4852022	Clinton	41.84447	-90.18874	26885	USA	United States	Northern America	Americas	False
3443013	Colonia del Sacramento	-34.46262	-57.83976	21714	URY	Uruguay	South America	Americas	False
3180871	Candelo	45.54093	8.10659	7750	ITA	Italy	Southern Europe	Europe	False
2525512	Bovalino Superiore	38.16905	16.15849	8418	ITA	Italy	Southern Europe	Europe	False
2993207	Mons-en-Barœul	50.63333	3.11667	23006	FRA	France	Western Europe	Europe	False
4163918	Meadow Woods	28.38556	-81.36646	25558	USA	United States	Northern America	Americas	False
4557137	Chester	39.84967	-75.35707	33972	USA	United States	Northern America	Americas	False
3053283	Ercsi	47.25194	18.89623	8383	HUN	Hungary	Eastern Europe	Europe	False
4917592	Anderson	40.10532	-85.68025	56129	USA	United States	Northern America	Americas	False
2853209	Plettenberg	51.20949	7.87261	28206	DEU	Germany	Western Europe	Europe	False
4786522	South Boston	36.69875	-78.9014	8142	USA	United States	Northern America	Americas	False
2955951	Annweiler am Trifels	49.20613	7.97527	7316	DEU	Germany	Western Europe	Europe	False
2918752	Gotha	50.94823	10.70193	46615	DEU	Germany	Western Europe	Europe	False
592225	Haapsalu	58.94306	23.54139	11805	EST	Estonia	Northern Europe	Europe	False
5278052	Waukesha	43.01168	-88.23148	70718	USA	United States	Northern America	Americas	False
6621541	Maidenbower	51.10781	-0.15286	8070	GBR	United Kingdom	Northern Europe	Europe	False
3180902	Camucia-Monsigliolo	43.25926	11.97114	6074	ITA	Italy	Southern Europe	Europe	False
2951528	Beeskow	52.17291	14.24597	8468	DEU	Germany	Western Europe	Europe	False
6621545	Broadfield	51.09714	-0.20664	13000	GBR	United Kingdom	Northern Europe	Europe	False
2820458	Uelsen	52.5	6.88333	5171	DEU	Germany	Western Europe	Europe	False
1804651	Kunming	25.03889	102.71833	3855346	CHN	China, People's Republic of	Eastern Asia	Asia	False
5114221	Croton-on-Hudson	41.20843	-73.89125	8070	USA	United States	Northern America	Americas	False
5081454	Wayne	42.23056	-97.01782	5660	USA	United States	Northern America	Americas	False
264559	Árta	39.16014	20.98561	21895	GRC	Greece	Southern Europe	Europe	False
8063344	Taiohae	-8.91093	-140.09972	1224	PYF	French Polynesia	Polynesia	Oceania	False
690545	Uzyn	49.82619	30.41487	12726	UKR	Ukraine	Eastern Europe	Europe	False
3836277	Santa Fe de la Vera Cruz	-31.63333	-60.7	489505	ARG	Argentina	South America	Americas	False
595689	Plunge	55.91139	21.84417	23381	LTU	Lithuania	Northern Europe	Europe	False
3180920	Camposampiero	45.56368	11.93534	8722	ITA	Italy	Southern Europe	Europe	False
2525567	Belvedere Marittimo	39.63641	15.84463	6182	ITA	Italy	Southern Europe	Europe	False
4163971	Melbourne	28.08363	-80.60811	76068	USA	United States	Northern America	Americas	False
2661265	Carouge	46.18096	6.13921	19344	CHE	Switzerland	Western Europe	Europe	False
2627309	Sauðárkrókur	65.74611	-19.63944	2575	ISL	Iceland	Northern Europe	Europe	False
4360592	Lexington Park	38.26679	-76.45384	11626	USA	United States	Northern America	Americas	False
493970	Shlissel’burg	59.9473	31.03845	12115	RUS	Russia	Eastern Europe	Europe	False
5179799	Bellefonte	40.91339	-77.77833	6187	USA	United States	Northern America	Americas	False
3049880	Kiskunhalas	46.43402	19.48479	29354	HUN	Hungary	Eastern Europe	Europe	False
2656666	Bacup	53.70336	-2.2007	13047	GBR	United Kingdom	Northern Europe	Europe	False
2184943	Papatowai	-46.56069	169.47068	6593	NZL	New Zealand	Australia and New Zealand	Oceania	False
723358	Trebišov	48.62858	21.71954	22947	SVK	Slovakia	Eastern Europe	Europe	False
2754975	Haelen	51.23583	5.95694	9935	NLD	Netherlands	Western Europe	Europe	False
2643696	Longfield	51.3969	0.30212	16808	GBR	United Kingdom	Northern Europe	Europe	False
3672486	Pereira	4.81333	-75.69611	440118	COL	Colombia	South America	Americas	False
3049896	Kiskőrös	46.62139	19.28528	15091	HUN	Hungary	Eastern Europe	Europe	False
3180970	Campogalliano	44.68874	10.84705	6234	ITA	Italy	Southern Europe	Europe	False
2853292	Plauen	50.4973	12.13782	66412	DEU	Germany	Western Europe	Europe	False
557469	Igra	57.5549	53.0544	22033	RUS	Russia	Eastern Europe	Europe	False
3901874	Vallegrande	-18.48923	-64.10609	8422	BOL	Bolivia	South America	Americas	False
2918840	Goslar	51.90425	10.42766	43560	DEU	Germany	Western Europe	Europe	False
2787769	Ronse	50.74574	3.6005	24204	BEL	Belgium	Western Europe	Europe	False
2170260	Corowa	-35.99704	146.38552	5178	AUS	Australia	Australia and New Zealand	Oceania	False
2755003	Haarlem	52.38084	4.63683	147590	NLD	Netherlands	Western Europe	Europe	False
2525628	Bagheria	38.07892	13.51237	52952	ITA	Italy	Southern Europe	Europe	False
1729524	Bacoor	14.45903	120.92903	356974	PHL	Philippines	South-Eastern Asia	Asia	False
4557247	Coatesville	39.98316	-75.82384	13100	USA	United States	Northern America	Americas	False
3541440	Sagua la Grande	22.80667	-80.07556	62073	CUB	Cuba	Caribbean	Americas	False
520552	Nizhniy Odes	63.64451	54.85598	11165	RUS	Russia	Eastern Europe	Europe	False
4795467	Charlotte Amalie	18.3419	-64.9307	20000	VIR	U.S. Virgin Islands	Caribbean	Americas	False
2656708	Ayr	55.46273	-4.63393	45513	GBR	United Kingdom	Northern Europe	Europe	False
1608133	Mueang Nonthaburi	13.86075	100.51477	291555	THA	Thailand	South-Eastern Asia	Asia	False
2656713	Aylsham	52.79672	1.25107	5627	GBR	United Kingdom	Northern Europe	Europe	False
5245387	Beloit	42.50835	-89.03178	36966	USA	United States	Northern America	Americas	False
64460	Beledweyne	4.73583	45.20361	55410	SOM	Somalia	Eastern Africa	Africa	False
2525646	Augusta	37.24065	15.22121	30723	ITA	Italy	Southern Europe	Europe	False
2656719	Aylesbury	51.81665	-0.81458	74565	GBR	United Kingdom	Northern Europe	Europe	False
3082704	Wałcz	53.27787	16.47122	25971	POL	Poland	Eastern Europe	Europe	False
2643704	Longdendale	53.46667	-2.0	8873	GBR	United Kingdom	Northern Europe	Europe	False
4524499	Sharonville	39.26811	-84.41327	13560	USA	United States	Northern America	Americas	False
2656725	Axminster	50.78259	-2.99787	5062	GBR	United Kingdom	Northern Europe	Europe	False
2755030	Haaksbergen	52.15667	6.73889	24137	NLD	Netherlands	Western Europe	Europe	False
5016024	Albert Lea	43.64801	-93.36827	18016	USA	United States	Northern America	Americas	False
723417	Svidník	49.30819	21.5703	12428	SVK	Slovakia	Eastern Europe	Europe	False
3017178	Fresnes	48.75568	2.32241	24803	FRA	France	Western Europe	Europe	False
8260059	Catterick Garrison	54.37748	-1.72232	12000	GBR	United Kingdom	Northern Europe	Europe	False
264668	Argostólion	38.18109	20.48903	9820	GRC	Greece	Southern Europe	Europe	False
362973	Abnūb	27.2696	31.15105	68749	EGY	Egypt	Northern Africa	Africa	False
264670	Árgos	37.63333	22.73333	22209	GRC	Greece	Southern Europe	Europe	False
2831699	Sögel	52.85	7.51667	6825	DEU	Germany	Western Europe	Europe	False
2820577	Überlingen	47.76977	9.17136	21507	DEU	Germany	Western Europe	Europe	False
3082722	Wadowice	49.88335	19.49292	19238	POL	Poland	Eastern Europe	Europe	False
2951654	Beckum	51.75571	8.04075	37814	DEU	Germany	Western Europe	Europe	False
2649169	Fort William	56.81648	-5.11208	9652	GBR	United Kingdom	Northern Europe	Europe	False
4393451	Kennett	36.23618	-90.05565	10932	USA	United States	Northern America	Americas	False
2755052	Grou	53.09456	5.83745	5737	NLD	Netherlands	Western Europe	Europe	False
3082734	Wąbrzeźno	53.27989	18.94773	13911	POL	Poland	Eastern Europe	Europe	False
788975	Kruševac	43.58	21.33389	75256	SRB	Serbia	Southern Europe	Europe	False
2492913	Jijel	36.82055	5.76671	148000	DZA	Algeria	Northern Africa	Africa	False
